City_ID,City,Lat,Lng,Max Temp,Humidity,Cloudiness,Wind Speed,Country,Date
0,corner brook,48.9667,-57.9484,-1.02,92,96,1.25,CA,2025-03-23
1,nurota,40.5614,65.6886,13.04,88,80,3.76,UZ,2025-03-23
2,udachny,66.4167,112.4,-20.38,99,99,2.95,RU,2025-03-23
3,adamstown,-25.066,-130.1015,23.86,80,100,10.35,PN,2025-03-23
4,piti village,13.4626,144.6933,28.19,68,20,7.2,GU,2025-03-23
5,utrik,11.2278,169.8474,26.95,69,99,7.47,MH,2025-03-23
6,bardai,11.65,7.2333,23.31,10,61,4.0,NG,2025-03-23
7,vilyuchinsk,52.9306,158.4028,2.15,99,100,4.44,RU,2025-03-23
8,rio gallegos,-51.6226,-69.2181,16.03,51,0,9.26,AR,2025-03-23
9,hobyo,5.3505,48.5268,28.3,78,19,5.74,SO,2025-03-23
10,sao felix do xingu,-6.6447,-51.995,22.88,98,93,0.6,BR,2025-03-23
11,bozoum,6.3193,16.3799,24.75,44,98,0.5,CF,2025-03-23
12,suicheng,33.8963,117.9331,14.65,71,0,7.3,CN,2025-03-23
13,port-aux-francais,-49.35,70.2167,6.16,92,100,13.55,TF,2025-03-23
14,lihue,21.9789,-159.3672,26.77,69,0,4.12,US,2025-03-23
15,umea,63.8284,20.2597,0.23,91,20,1.54,SE,2025-03-23
16,aginskoye,51.1,114.53,-7.16,54,4,2.25,RU,2025-03-23
17,talnakh,69.4865,88.3972,-25.28,86,8,0.96,RU,2025-03-23
18,cidreira,-30.1811,-50.2056,25.18,76,47,2.69,BR,2025-03-23
19,urzhar,47.093,81.6294,-0.43,83,100,1.67,KZ,2025-03-23
20,swellendam,-34.0226,20.4417,19.98,81,69,3.5,ZA,2025-03-23
21,erenhot,43.6475,111.9767,2.51,59,32,3.65,CN,2025-03-23
22,olonkinbyen,70.9221,-8.7187,-6.14,92,100,14.38,SJ,2025-03-23
23,lompoc,34.6391,-120.4579,19.71,59,23,2.24,US,2025-03-23
24,constantia,44.1833,28.65,8.4,92,99,8.22,RO,2025-03-23
25,avarua,-21.2078,-159.775,29.03,70,75,7.72,CK,2025-03-23
26,pisco,-13.7,-76.2167,23.0,75,0,8.23,PE,2025-03-23
27,tiksi,71.6872,128.8694,-26.87,100,100,2.68,RU,2025-03-23
28,wajir,1.7471,40.0573,26.86,67,50,6.3,KE,2025-03-23
29,tolanaro,-25.0319,46.9987,23.13,93,17,0.8,MG,2025-03-23
30,port alfred,-33.5906,26.891,22.32,96,98,0.45,ZA,2025-03-23
31,patos,-7.0244,-37.28,27.82,30,10,2.56,BR,2025-03-23
32,huangpi,30.8845,114.3779,13.44,88,10,2.0,CN,2025-03-23
33,west island,-12.1568,96.8225,25.99,94,100,8.75,CC,2025-03-23
34,constitucion,-35.3333,-72.4167,14.22,72,0,3.05,CL,2025-03-23
35,nagqu,31.5,92.0,-10.36,34,0,0.68,CN,2025-03-23
36,waitangi,-43.9535,-176.5597,19.34,88,99,1.34,NZ,2025-03-23
37,saint-philippe,-21.3585,55.7679,24.77,82,84,3.31,RE,2025-03-23
38,herceg novi,42.4531,18.5375,14.23,84,100,0.51,ME,2025-03-23
39,gedo,9.0167,37.45,12.55,86,100,0.72,ET,2025-03-23
40,aasiaat,68.7098,-52.8699,-14.4,89,89,3.61,GL,2025-03-23
41,rudnyy,52.9594,63.1206,-0.87,66,17,6.96,KZ,2025-03-23
42,kodiak,57.79,-152.4072,3.73,93,100,3.09,US,2025-03-23
43,pokrovsk,48.282,37.1758,5.4,58,99,3.57,UA,2025-03-23
44,bredasdorp,-34.5322,20.0403,19.05,80,100,4.74,ZA,2025-03-23
45,grytviken,-54.2811,-36.5092,3.43,97,100,8.43,GS,2025-03-23
46,montijo,38.7067,-8.9739,9.49,77,20,3.6,PT,2025-03-23
47,masterton,-40.9597,175.6575,15.24,97,100,2.44,NZ,2025-03-23
48,verdal,63.7933,11.4817,5.85,55,0,2.35,NO,2025-03-23
49,puerto natales,-51.7236,-72.4875,10.44,83,100,5.6,CL,2025-03-23
50,tazovsky,67.4667,78.7,-15.42,97,100,3.95,RU,2025-03-23
51,port hedland,-20.3167,118.5667,28.47,78,99,3.6,AU,2025-03-23
52,dudinka,69.4058,86.1778,-27.18,98,21,2.19,RU,2025-03-23
53,kavaratti,10.5669,72.642,28.09,72,0,4.36,IN,2025-03-23
54,ushuaia,-54.8,-68.3,10.81,71,75,14.92,AR,2025-03-23
55,tromso,69.6496,18.957,0.46,70,27,8.75,NO,2025-03-23
56,kamthi,21.2333,79.2,23.8,18,0,2.34,IN,2025-03-23
57,opuwo,-18.0607,13.84,21.19,79,51,0.17,NA,2025-03-23
58,hamilton square,40.2273,-74.6532,9.8,35,0,3.09,US,2025-03-23
59,ulimang,7.6242,134.6421,27.99,77,89,6.24,PW,2025-03-23
60,fort st. john,56.2499,-120.8529,4.94,56,100,5.14,CA,2025-03-23
61,bethel,41.3712,-73.414,7.78,38,80,0.89,US,2025-03-23
62,lebu,-37.6167,-73.65,17.91,48,0,7.2,CL,2025-03-23
63,nuku'alofa,-21.1333,-175.2,31.19,79,75,4.63,TO,2025-03-23
64,college,64.8569,-147.8028,3.18,45,0,1.54,US,2025-03-23
65,mossel bay,-34.1831,22.146,19.72,92,98,7.62,ZA,2025-03-23
66,longyearbyen,78.2186,15.6401,-4.09,80,40,3.6,SJ,2025-03-23
67,whitehorse,60.7161,-135.0538,1.72,74,100,1.54,CA,2025-03-23
68,werne,51.6645,7.6342,9.67,88,100,2.57,DE,2025-03-23
69,blackmans bay,-43.0167,147.3167,14.82,67,85,0.45,AU,2025-03-23
70,praia da vitoria,38.7333,-27.0667,12.69,83,20,1.62,PT,2025-03-23
71,pangody,65.85,74.4859,-16.42,93,98,9.35,RU,2025-03-23
72,misratah,32.3754,15.0925,23.58,23,97,7.9,LY,2025-03-23
73,ilulissat,69.2167,-51.1,-10.99,67,89,3.6,GL,2025-03-23
74,qaqortoq,60.7167,-46.0333,1.6,75,100,3.5,GL,2025-03-23
75,griffith,41.5284,-87.4237,6.24,88,100,5.14,US,2025-03-23
76,port elizabeth,-33.918,25.5701,23.94,98,99,2.24,ZA,2025-03-23
77,stanley,54.868,-1.6985,4.9,87,100,3.54,GB,2025-03-23
78,san antonio oeste,-40.7319,-64.9477,13.62,60,10,6.18,AR,2025-03-23
79,edinburgh of the seven seas,-37.0676,-12.3116,15.07,63,48,4.36,SH,2025-03-23
80,albany,42.6001,-73.9662,5.23,42,78,2.0,US,2025-03-23
81,bilibino,68.0546,166.4372,-23.13,95,100,1.47,RU,2025-03-23
82,coronel suarez,-37.4547,-61.9334,13.45,73,97,7.19,AR,2025-03-23
83,invercargill,-46.4,168.35,14.71,53,59,1.34,NZ,2025-03-23
84,st. john's,47.5649,-52.7093,6.65,85,20,4.63,CA,2025-03-23
85,papatowai,-46.5619,169.4708,14.03,55,77,1.69,NZ,2025-03-23
86,coquimbo,-29.9533,-71.3436,16.66,85,100,3.09,CL,2025-03-23
87,smithers,54.7804,-127.1743,4.18,87,100,1.54,CA,2025-03-23
88,sarakhs,36.5449,61.1577,11.63,75,100,5.21,IR,2025-03-23
89,huejutla de reyes,21.1333,-98.4167,34.52,35,53,6.0,MX,2025-03-23
90,urangan,-25.3,152.9,24.74,72,95,5.06,AU,2025-03-23
91,talakan,50.3167,130.3667,-3.37,96,100,3.03,RU,2025-03-23
92,sougueur,35.1857,1.4961,6.49,74,75,7.72,DZ,2025-03-23
93,sabang,5.8933,95.3214,28.06,74,82,5.64,ID,2025-03-23
94,nemuro,43.3236,145.575,0.63,70,7,2.98,JP,2025-03-23
95,tura,25.5198,90.2201,17.33,72,6,1.8,IN,2025-03-23
96,taoudenni,22.6783,-3.9836,28.27,11,39,4.66,ML,2025-03-23
97,saint-pierre,-21.3393,55.4781,25.61,88,0,2.06,RE,2025-03-23
98,mogadishu,2.0371,45.3438,27.61,84,15,6.07,SO,2025-03-23
99,port blair,11.6667,92.75,26.31,78,51,2.31,IN,2025-03-23
100,timaru,-44.4,171.25,12.78,84,100,2.24,NZ,2025-03-23
101,bamboo flat,11.7,92.7167,25.72,79,52,2.19,IN,2025-03-23
102,sitka,57.0531,-135.33,5.94,81,100,6.17,US,2025-03-23
103,remire-montjoly,4.9167,-52.2667,25.98,82,20,3.6,GF,2025-03-23
104,iskateley,67.6803,53.1512,-7.81,94,98,5.98,RU,2025-03-23
105,black river,18.0264,-77.8487,28.66,54,77,5.36,JM,2025-03-23
106,port mathurin,-19.6833,63.4167,26.99,63,0,7.56,MU,2025-03-23
107,new norfolk,-42.7826,147.0587,14.89,65,76,1.32,AU,2025-03-23
108,hawaiian paradise park,19.5933,-154.9731,26.73,68,0,6.17,US,2025-03-23
109,arraial do cabo,-22.9661,-42.0278,26.72,87,100,6.05,BR,2025-03-23
110,yellowknife,62.456,-114.3525,-4.71,54,40,2.57,CA,2025-03-23
111,anadyr,64.75,177.4833,-23.72,70,0,3.0,RU,2025-03-23
112,fortuna,40.5982,-124.1573,15.25,70,0,7.72,US,2025-03-23
113,thompson,55.7435,-97.8558,-3.72,89,75,2.57,CA,2025-03-23
114,kununurra,-15.7667,128.7333,28.64,82,100,1.03,AU,2025-03-23
115,puerto ayora,-0.7393,-90.3518,28.08,92,85,2.68,EC,2025-03-23
116,bamyan,34.75,67.25,0.86,68,100,2.68,AF,2025-03-23
117,hilo,19.7297,-155.09,26.85,68,0,6.17,US,2025-03-23
118,melekeok village,7.4957,134.6367,28.11,79,100,2.57,PW,2025-03-23
119,byron bay,-28.65,153.6167,23.11,91,100,1.02,AU,2025-03-23
120,marica,-22.9194,-42.8186,26.66,82,66,4.54,BR,2025-03-23
121,chonchi,-42.6128,-73.8092,14.56,69,21,1.08,CL,2025-03-23
122,isla vista,34.4133,-119.861,21.61,51,3,3.1,US,2025-03-23
123,tsiombe,-25.3,45.4833,22.7,98,25,2.16,MG,2025-03-23
124,carnarvon,-24.8667,113.6333,28.61,36,3,5.25,AU,2025-03-23
125,soio,-6.1349,12.3689,26.87,83,93,3.42,AO,2025-03-23
126,moorhead,46.8739,-96.7676,-0.33,69,100,9.77,US,2025-03-23
127,la passe,45.5549,-0.8967,9.45,95,100,3.71,FR,2025-03-23
128,malango,-2.9627,119.9001,19.57,82,98,1.35,ID,2025-03-23
129,luau,-10.7073,22.2247,18.87,98,100,1.44,AO,2025-03-23
130,huarmey,-10.0681,-78.1522,23.5,74,52,4.63,PE,2025-03-23
131,guanica,17.9716,-66.908,25.27,84,1,6.27,PR,2025-03-23
132,berdigestyakh,62.0989,126.6992,-13.99,96,99,2.27,RU,2025-03-23
133,andergrove,-21.0833,149.1833,26.06,78,100,6.4,AU,2025-03-23
134,kapit,2.0167,112.9333,23.24,99,99,0.15,MY,2025-03-23
135,capao da canoa,-29.7456,-50.0097,25.24,74,23,2.02,BR,2025-03-23
136,petropavlovsk-kamchatsky,53.0452,158.6483,1.33,64,100,3.0,RU,2025-03-23
137,wailua homesteads,22.0669,-159.378,26.44,72,0,4.12,US,2025-03-23
138,manaure,11.7751,-72.4445,29.0,53,20,11.27,CO,2025-03-23
139,bei'an,46.4398,126.2373,1.55,49,94,7.79,CN,2025-03-23
140,loyew,51.9458,30.7953,6.99,75,100,6.55,BY,2025-03-23
141,taulaga,-11.0553,-171.0883,29.02,76,48,6.06,AS,2025-03-23
142,atafu village,-8.5421,-172.5159,28.88,74,13,5.16,TK,2025-03-23
143,belabo,4.9333,13.3,25.86,50,99,1.02,CM,2025-03-23
144,youkounkoun,12.5333,-13.1333,32.3,27,47,4.98,GN,2025-03-23
145,georgetown,5.4112,100.3354,27.47,84,20,2.24,MY,2025-03-23
146,uturoa,-16.7333,-151.4333,28.19,74,34,9.81,PF,2025-03-23
147,hammerfest,70.6634,23.6821,4.49,80,40,1.03,NO,2025-03-23
148,suzemka,52.3178,34.0689,3.8,89,83,5.16,RU,2025-03-23
149,vernon,50.2581,-119.2691,6.62,90,100,1.03,CA,2025-03-23
150,thinadhoo,0.5333,72.9333,28.72,72,4,4.69,MV,2025-03-23
151,springs,-26.25,28.4,21.31,83,25,1.67,ZA,2025-03-23
152,vertientes,21.2594,-78.1464,27.26,57,100,7.65,CU,2025-03-23
153,isafjordur,66.0755,-23.124,-3.84,89,100,3.2,IS,2025-03-23
154,es castell,39.8795,4.2854,12.31,69,20,3.6,ES,2025-03-23
155,colonia,50.9333,6.95,9.88,84,0,1.03,DE,2025-03-23
156,awjilah,29.1081,21.2869,16.44,23,0,5.53,LY,2025-03-23
157,ust-nera,64.5667,143.2,-18.81,98,100,2.54,RU,2025-03-23
158,margaret river,-33.95,115.0667,16.62,92,13,3.49,AU,2025-03-23
159,hithadhoo,-0.6,73.0833,28.35,73,23,2.43,MV,2025-03-23
160,murun-kuren,49.6342,100.1625,-1.11,75,100,2.49,MN,2025-03-23
161,sur,22.5667,59.5289,24.52,51,0,4.25,OM,2025-03-23
162,molochnoye,59.2917,39.6787,-2.17,72,66,3.43,RU,2025-03-23
163,bagasra,21.4833,70.95,25.18,37,3,3.41,IN,2025-03-23
164,mogocha,53.7333,119.7667,-12.1,77,23,2.34,RU,2025-03-23
165,lerwick,60.1545,-1.1494,6.85,89,100,4.32,GB,2025-03-23
166,la ronge,55.1001,-105.2842,3.97,59,20,3.6,CA,2025-03-23
167,porto novo,6.4965,2.6036,28.9,79,79,3.95,BJ,2025-03-23
168,nadym,65.5333,72.5167,-18.63,95,99,10.23,RU,2025-03-23
169,prince rupert,54.3161,-130.3201,7.05,95,100,6.69,CA,2025-03-23
170,sungai raya,0.7,108.9,25.13,93,100,3.36,ID,2025-03-23
171,lazaro cardenas,17.9583,-102.2,27.03,57,86,4.28,MX,2025-03-23
172,buri ram,14.9943,103.1039,23.65,48,4,1.62,TH,2025-03-23
173,kingston,17.997,-76.7936,27.86,52,20,6.69,JM,2025-03-23
174,port lincoln,-34.7333,135.8667,19.31,74,1,7.66,AU,2025-03-23
175,minas de marcona,-15.2119,-75.1103,19.67,65,69,6.23,PE,2025-03-23
176,enriquillo,17.9,-71.2333,25.05,77,19,4.62,DO,2025-03-23
177,kristiansund,63.1115,7.732,9.68,41,75,3.6,NO,2025-03-23
178,vila franca do campo,37.7167,-25.4333,12.29,80,99,0.93,PT,2025-03-23
179,mount gambier,-37.8333,140.7667,16.85,67,1,2.8,AU,2025-03-23
180,hermanus,-34.4187,19.2345,20.45,80,100,4.59,ZA,2025-03-23
181,rongelap,11.1635,166.8941,27.23,68,89,6.17,MH,2025-03-23
182,pundong,-7.9522,110.3486,26.22,90,100,3.22,ID,2025-03-23
183,laojunmiao,39.8333,97.7333,6.33,11,83,3.65,CN,2025-03-23
184,meadow lakes,61.6247,-149.6011,5.9,71,7,1.09,US,2025-03-23
185,klamath falls,42.2249,-121.7817,11.77,62,75,2.06,US,2025-03-23
186,motueka,-41.1333,173.0167,19.83,66,15,2.02,NZ,2025-03-23
187,hamilton,39.1834,-84.5333,10.94,96,100,6.69,US,2025-03-23
188,katsuren-haebaru,26.3369,127.8719,21.08,71,20,1.54,JP,2025-03-23
189,aur,8.1499,171.1687,27.24,80,84,8.43,MH,2025-03-23
190,fukuecho,32.6881,128.8419,15.17,81,75,5.14,JP,2025-03-23
191,hotan,37.0997,79.9269,14.41,13,17,3.03,CN,2025-03-23
192,sumbawa besar,-8.5,117.4333,24.18,95,100,1.12,ID,2025-03-23
193,mavoor,11.2667,75.9167,24.45,88,20,1.03,IN,2025-03-23
194,labytnangi,66.6572,66.4183,-22.41,91,77,1.69,RU,2025-03-23
195,gandu,-13.7439,-39.4867,22.88,97,21,0.75,BR,2025-03-23
196,laguna,38.421,-121.4238,24.11,68,0,4.12,US,2025-03-23
197,tionk essil,12.7856,-16.5217,23.03,53,42,2.57,SN,2025-03-23
198,hampton bays,40.869,-72.5176,8.33,50,0,6.26,US,2025-03-23
199,haiku-pauwela,20.9219,-156.3051,26.01,69,20,11.18,US,2025-03-23
200,crane,31.3974,-102.3501,24.3,18,50,9.62,US,2025-03-23
201,belen,36.4891,36.2233,5.86,83,0,4.12,TR,2025-03-23
202,east tamworth,-31.0894,150.9436,21.86,70,100,3.6,AU,2025-03-23
203,tazacorte,28.629,-17.9293,17.47,70,100,8.23,ES,2025-03-23
204,kindu,-2.95,25.95,21.21,100,100,1.2,CD,2025-03-23
205,yarmouth,41.7057,-70.2286,5.59,36,0,1.79,US,2025-03-23
206,codrington,-38.2667,141.9667,17.01,67,0,2.9,AU,2025-03-23
207,swift current,50.2834,-107.8014,7.43,35,0,6.17,CA,2025-03-23
208,ribeirao branco,-24.2208,-48.7656,20.15,91,90,0.61,BR,2025-03-23
209,katabu,-4.9333,122.5167,25.39,90,96,0.12,ID,2025-03-23
210,maasim,5.8575,125.0061,27.32,73,98,2.63,PH,2025-03-23
211,isangel,-19.55,169.2667,28.04,72,54,2.02,VU,2025-03-23
212,jawf al maqbabah,13.8378,45.8349,22.0,78,83,1.04,YE,2025-03-23
213,afaahiti,-17.75,-149.2833,29.93,74,64,10.63,PF,2025-03-23
214,lesnikovo,55.2822,65.3175,-5.7,70,79,6.66,RU,2025-03-23
215,port saint john's,-31.6229,29.5448,23.8,90,71,2.22,ZA,2025-03-23
216,colac,-38.3333,143.5833,16.91,78,2,1.49,AU,2025-03-23
217,east london,-33.0153,27.9116,23.71,89,93,0.65,ZA,2025-03-23
218,salinas,36.6777,-121.6555,21.29,55,0,5.66,US,2025-03-23
219,garachico,28.7781,-17.7646,14.63,82,100,8.23,ES,2025-03-23
220,linqu,36.5156,118.5397,16.28,24,2,6.32,CN,2025-03-23
221,mugia,43.1041,-9.2179,9.5,77,90,8.35,ES,2025-03-23
222,san patricio,28.017,-97.5169,27.32,77,100,7.41,US,2025-03-23
223,lugoba,-6.45,38.3333,22.69,97,27,0.58,TZ,2025-03-23
224,vorgashor,67.5833,63.95,-24.42,100,100,2.43,RU,2025-03-23
225,al bahah,20.0129,41.4677,13.13,50,0,2.39,SA,2025-03-23
226,kailua-kona,19.6406,-155.9956,26.44,81,7,2.24,US,2025-03-23
227,nchelenge,-9.3451,28.734,20.87,90,100,2.61,ZM,2025-03-23
228,hadibu,12.65,54.0333,26.51,77,46,3.44,YE,2025-03-23
229,iqaluit,63.7506,-68.5145,-20.15,71,100,7.2,CA,2025-03-23
230,usogorsk,63.4106,48.6872,-0.2,95,100,3.02,RU,2025-03-23
231,peace river,56.2501,-117.286,8.17,42,40,3.6,CA,2025-03-23
232,natal,-5.795,-35.2094,28.03,81,20,3.6,BR,2025-03-23
233,port isabel,26.0734,-97.2086,25.97,80,100,4.47,US,2025-03-23
234,ancud,-41.8697,-73.8203,13.06,66,30,1.97,CL,2025-03-23
235,callao,-12.0667,-77.15,23.16,73,0,6.17,PE,2025-03-23
236,nova sintra,14.8667,-24.7167,20.75,80,22,10.99,CV,2025-03-23
237,antalaha,-14.9003,50.2788,24.78,92,90,1.86,MG,2025-03-23
238,buturlino,55.5667,44.8974,-0.66,56,0,2.21,RU,2025-03-23
239,barra de santo antonio,-9.4047,-35.5072,26.53,78,2,4.61,BR,2025-03-23
240,viedma,-40.8135,-62.9967,12.14,61,20,4.47,AR,2025-03-23
241,houma,29.5958,-90.7195,22.6,76,100,5.66,US,2025-03-23
242,semirom,31.4167,51.5667,-0.76,63,0,2.29,IR,2025-03-23
243,manay,7.215,126.5397,24.45,79,100,1.8,PH,2025-03-23
244,san julian,21.0167,-102.1667,27.44,12,53,6.17,MX,2025-03-23
245,badger,64.8,-147.5333,3.14,51,0,1.54,US,2025-03-23
246,kasongo-lunda,-6.4667,16.8167,21.04,96,72,0.31,CD,2025-03-23
247,yemetsk,63.4721,41.7941,-7.69,97,31,1.77,RU,2025-03-23
248,biltine,14.5333,20.9167,22.43,9,93,7.88,TD,2025-03-23
249,onega,63.9061,38.1404,-5.13,96,100,2.15,RU,2025-03-23
250,jatoba,-9.1831,-38.2689,30.17,55,29,8.07,BR,2025-03-23
251,igarka,67.4667,86.5833,-22.54,93,29,3.23,RU,2025-03-23
252,naze,28.3667,129.4833,17.1,66,4,4.29,JP,2025-03-23
253,okhotsk,59.3833,143.3,-9.93,93,100,3.18,RU,2025-03-23
254,muborak,39.2553,65.1528,14.47,73,91,5.7,UZ,2025-03-23
255,cabo san lucas,22.8909,-109.9124,23.76,41,0,3.09,MX,2025-03-23
256,ribeira grande,38.5167,-28.7,14.44,86,75,2.57,PT,2025-03-23
257,la rinconada,37.4873,-5.9826,8.9,83,0,1.54,ES,2025-03-23
258,cherdyn',60.403,56.4787,-13.58,97,25,0.74,RU,2025-03-23
259,ulsteinvik,62.3432,5.8487,11.7,47,95,4.51,NO,2025-03-23
260,megara,38.0,23.3456,14.93,81,98,2.1,GR,2025-03-23
261,coelho neto,-4.2567,-43.0128,24.83,86,99,1.3,BR,2025-03-23
262,uruzgan,32.8333,66.0,17.37,25,100,1.13,AF,2025-03-23
263,vorkuta,67.5,64.0,-24.61,100,100,2.53,RU,2025-03-23
264,pariaman,-0.619,100.12,24.93,92,91,1.55,ID,2025-03-23
265,tambo,-14.8,-73.9167,6.74,93,100,3.11,PE,2025-03-23
266,karonga,-9.9333,33.9333,22.28,93,100,1.25,MW,2025-03-23
267,lomas de santa anita,20.501,-103.4947,31.46,11,20,1.54,MX,2025-03-23
268,gremda,34.75,10.7833,16.38,76,40,6.17,TN,2025-03-23
269,itoman,26.1247,127.6694,20.17,75,20,5.14,JP,2025-03-23
270,quellon,-43.1167,-73.6167,10.82,74,8,3.49,CL,2025-03-23
271,thunder bay,48.4001,-89.3168,-1.75,97,100,6.17,CA,2025-03-23
272,valentin gomez farias,28.2167,-106.5833,25.68,5,44,6.9,MX,2025-03-23
273,gorontalo,0.5412,123.0595,25.2,90,52,1.07,ID,2025-03-23
274,ain sukhna,29.6002,32.3167,13.5,69,0,1.68,EG,2025-03-23
275,nova vicosa,-17.8919,-39.3719,25.9,84,27,4.18,BR,2025-03-23
276,bargaal,11.2864,51.0773,26.73,83,40,1.58,SO,2025-03-23
277,ndele,8.4109,20.6473,24.11,15,100,1.95,CF,2025-03-23
278,yelizovo,53.1873,158.3805,2.08,64,100,3.0,RU,2025-03-23
279,saldanha,-33.0117,17.9442,17.54,85,93,1.29,ZA,2025-03-23
280,fort bragg,35.139,-79.006,20.23,28,0,2.06,US,2025-03-23
281,saint croix,17.7397,-64.7388,24.72,76,0,4.63,VI,2025-03-23
282,hechuan,29.9947,106.2572,13.85,74,99,1.58,CN,2025-03-23
283,yelenendorf,40.5869,46.3158,4.64,67,40,5.14,AZ,2025-03-23
284,khovd,48.0056,91.6419,-1.93,64,6,2.48,MN,2025-03-23
285,boyolangu,-8.1181,111.8935,26.47,86,91,1.26,ID,2025-03-23
286,garoowe,8.4054,48.4845,23.69,86,18,4.74,SO,2025-03-23
287,arno,60.1167,18.6333,-0.08,78,95,3.92,SE,2025-03-23
288,susuman,62.7833,148.1667,-18.33,78,100,1.94,RU,2025-03-23
289,bobrovytsya,50.75,31.3833,7.29,61,100,6.96,UA,2025-03-23
290,northam,51.0333,-4.2167,9.49,87,99,3.38,GB,2025-03-23
291,narsingdi,23.9208,90.7181,19.25,68,3,2.3,BD,2025-03-23
292,flin flon,54.7682,-101.865,-0.76,92,100,3.6,CA,2025-03-23
293,itacoatiara,-3.1431,-58.4442,24.34,96,100,0.83,BR,2025-03-23
294,akureyri,65.6835,-18.0878,-1.44,71,75,5.66,IS,2025-03-23
295,malpica,43.3228,-8.8105,8.07,88,100,5.85,ES,2025-03-23
296,kruisfontein,-34.0033,24.7314,22.71,86,94,5.02,ZA,2025-03-23
297,santander,43.4647,-3.8044,9.4,90,100,3.09,ES,2025-03-23
298,punta gorda,26.9298,-82.0454,22.27,69,0,4.12,US,2025-03-23
299,dalhart,36.0595,-102.5133,14.41,25,0,3.09,US,2025-03-23
300,howard springs,-12.497,131.047,27.42,94,100,0.99,AU,2025-03-23
301,punta arenas,-53.15,-70.9167,10.06,93,100,9.26,CL,2025-03-23
302,ruteng,-8.6136,120.4721,18.81,95,100,1.28,ID,2025-03-23
303,manokwari,-0.8667,134.0833,27.18,76,80,1.16,ID,2025-03-23
304,rikaze,29.25,88.8833,-1.52,15,66,1.34,CN,2025-03-23
305,heunghae,36.1125,129.3522,13.73,53,100,2.53,KR,2025-03-23
306,fallon,39.4735,-118.7774,18.5,29,75,2.57,US,2025-03-23
307,howrah,22.5892,88.3103,22.95,64,20,0.0,IN,2025-03-23
308,plettenberg bay,-34.0527,23.3716,19.65,94,70,4.46,ZA,2025-03-23
309,egilsstadir,65.2653,-14.3948,-2.62,69,20,7.72,IS,2025-03-23
310,hemsby,52.6971,1.6918,7.38,91,95,4.86,GB,2025-03-23
311,jamestown,42.097,-79.2353,3.66,49,75,5.14,US,2025-03-23
312,margate,51.3813,1.3862,8.18,91,70,0.84,GB,2025-03-23
313,rio grande,-32.035,-52.0986,23.62,85,57,3.94,BR,2025-03-23
314,imperia,43.9667,7.7833,5.36,93,100,0.47,IT,2025-03-23
315,turpan,42.9333,89.1667,13.64,20,30,1.83,CN,2025-03-23
316,ad dabbah,18.05,30.95,17.52,18,1,5.47,SD,2025-03-23
317,aleksandrovsk-sakhalinskiy,50.8975,142.1561,-6.02,83,100,1.39,RU,2025-03-23
318,alaghsas,17.0187,8.0168,23.44,7,6,6.16,NE,2025-03-23
319,markovo,57.3206,107.0881,-15.42,99,99,0.47,RU,2025-03-23
320,boa vista,2.8197,-60.6733,29.89,48,0,3.6,BR,2025-03-23
321,valparaiso,-33.0393,-71.6273,16.8,47,75,2.57,CL,2025-03-23
322,puerto deseado,-47.7503,-65.8938,14.94,49,45,8.57,AR,2025-03-23
323,arteche,12.2645,125.4048,25.96,88,77,2.0,PH,2025-03-23
324,phalaborwa,-23.943,31.1411,23.95,58,58,2.09,ZA,2025-03-23
325,sarangani,5.4033,125.4636,27.49,78,100,4.54,PH,2025-03-23
326,saint george's,12.0564,-61.7485,26.36,75,20,5.66,GD,2025-03-23
327,ta`u,-14.2336,-169.5144,28.72,76,41,6.7,AS,2025-03-23
328,shingu,33.7333,135.9833,15.57,53,100,0.67,JP,2025-03-23
329,goondiwindi,-28.55,150.3167,21.85,82,100,2.74,AU,2025-03-23
330,chaohu,31.6,117.8667,13.39,83,2,3.56,CN,2025-03-23
331,zapolyarnyy,69.4154,30.8136,-4.15,73,37,4.76,RU,2025-03-23
332,sharm el-sheikh,27.8518,34.305,20.45,41,0,2.45,EG,2025-03-23
333,sylvester,31.5307,-83.8354,22.91,35,26,2.71,US,2025-03-23
334,enewetak,11.3474,162.3373,26.81,68,99,6.84,MH,2025-03-23
335,masvingo,-20.0637,30.8277,16.83,71,79,1.95,ZW,2025-03-23
336,mogok,22.9167,96.5,14.66,55,1,0.63,MM,2025-03-23
337,wenling,28.3669,121.36,14.41,60,100,2.28,CN,2025-03-23
338,gyumri,40.7942,43.8453,-5.3,71,20,1.03,AM,2025-03-23
339,usinsk,65.9939,57.5281,-17.77,98,84,3.77,RU,2025-03-23
340,lospalos,-8.5186,127.0025,24.1,93,100,1.33,TL,2025-03-23
341,gargalianoi,37.0667,21.6333,12.72,80,87,4.13,GR,2025-03-23
342,soufriere,13.8562,-61.0566,25.53,78,75,9.26,LC,2025-03-23
343,touros,-5.1989,-35.4608,27.25,75,16,4.18,BR,2025-03-23
344,waldmunchen,49.3786,12.7042,6.63,93,100,1.78,DE,2025-03-23
345,molde,62.7375,7.1591,8.64,65,0,3.6,NO,2025-03-23
346,port macquarie,-31.4333,152.9167,23.34,83,100,0.89,AU,2025-03-23
347,teruel,40.6667,-0.6667,1.76,95,98,2.21,ES,2025-03-23
348,ceerigaabo,10.6162,47.368,17.53,78,18,0.88,SO,2025-03-23
349,fale old settlement,-9.3852,-171.2468,28.81,78,21,5.61,TK,2025-03-23
350,krasnokamsk,58.0802,55.7541,-0.68,95,94,1.77,RU,2025-03-23
351,bandarbeyla,9.4942,50.8122,26.42,88,79,4.03,SO,2025-03-23
352,grand falls-windsor,48.9332,-55.6649,3.5,71,69,2.77,CA,2025-03-23
353,villa bruzual,9.3328,-69.1208,31.79,29,93,1.8,VE,2025-03-23
354,tadine,-21.55,167.8833,27.32,75,5,5.05,NC,2025-03-23
355,hinton,53.4001,-117.5857,4.67,57,100,1.68,CA,2025-03-23
356,tinajo,29.0788,-13.7081,17.33,69,40,5.66,ES,2025-03-23
357,colares,38.7992,-9.4469,9.46,81,23,10.36,PT,2025-03-23
358,north bend,43.4065,-124.2243,17.05,76,100,3.87,US,2025-03-23
359,flying fish cove,-10.4217,105.6791,28.31,80,100,4.12,CX,2025-03-23
360,owerri,5.4833,7.0304,26.46,82,99,2.42,NG,2025-03-23
361,sinan,34.8262,126.1086,8.5,82,82,11.54,KR,2025-03-23
362,benguela,-12.5763,13.4055,25.46,86,86,2.23,AO,2025-03-23
363,amqui,48.4638,-67.4313,-7.89,72,94,6.13,CA,2025-03-23
364,lehigh acres,26.6254,-81.6248,23.5,59,0,4.63,US,2025-03-23
365,lysekil,58.2743,11.4358,2.54,74,2,5.49,SE,2025-03-23
366,nishinoomote,30.7333,131.0,17.83,61,66,2.62,JP,2025-03-23
367,concepcion,-36.827,-73.0498,19.66,33,20,6.17,CL,2025-03-23
368,mozarlandia,-14.7447,-50.5706,25.53,77,12,1.63,BR,2025-03-23
369,ingeniero jacobacci,-41.3427,-69.5448,12.74,26,1,2.2,AR,2025-03-23
370,brookings,44.3114,-96.7984,4.74,60,100,10.29,US,2025-03-23
371,polyarnyy,69.1989,33.4478,-2.95,82,22,4.9,RU,2025-03-23
372,malvan,16.0667,73.4667,24.51,75,0,3.17,IN,2025-03-23
373,pearsall,28.8922,-99.095,29.56,49,100,3.71,US,2025-03-23
374,port moresby,-9.4431,147.1797,26.81,78,40,1.54,PG,2025-03-23
375,berezovo,63.9381,65.0419,-15.34,82,10,3.59,RU,2025-03-23
376,nelson bay,-32.7167,152.15,22.88,84,100,2.68,AU,2025-03-23
377,tual,-5.6667,132.75,26.12,77,100,1.19,ID,2025-03-23
378,salinopolis,-0.6136,-47.3561,25.89,87,100,4.39,BR,2025-03-23
379,cold lake,54.4502,-110.2017,6.16,42,20,5.14,CA,2025-03-23
380,chagoda,59.164,35.3285,-1.59,63,3,1.81,RU,2025-03-23
381,banda aceh,5.5577,95.3222,25.8,78,89,2.07,ID,2025-03-23
382,hola,51.5377,23.1902,6.59,92,100,5.0,PL,2025-03-23
383,pedro juan caballero,-22.5472,-55.7333,20.19,94,89,4.73,PY,2025-03-23
384,malangali,-8.5667,34.85,17.13,98,100,2.2,TZ,2025-03-23
385,quang ngai,15.1167,108.8,18.24,95,44,1.21,VN,2025-03-23
386,olyokminsk,60.3736,120.4264,-10.22,95,100,2.08,RU,2025-03-23
387,kavalerovo,44.2661,135.0572,1.48,46,27,1.25,RU,2025-03-23
388,arkhangel'sk,64.5401,40.5433,-7.08,78,0,1.0,RU,2025-03-23
389,qusmuryn,52.4503,64.6311,-0.4,68,9,6.12,KZ,2025-03-23
390,ati,13.2154,18.3353,23.22,7,73,4.56,TD,2025-03-23
391,saipan,15.1355,145.701,27.42,73,20,6.69,MP,2025-03-23
392,vranje,42.5514,21.9003,7.86,86,100,1.24,RS,2025-03-23
393,antsiranana,-12.2787,49.2917,25.11,90,87,3.07,MG,2025-03-23
394,kataba,8.4604,-0.7732,32.34,46,100,5.15,GH,2025-03-23
395,las lajitas,-24.6833,-64.25,21.7,95,43,3.53,AR,2025-03-23
396,kone,-21.0595,164.8658,28.8,67,99,1.77,NC,2025-03-23
397,hasaki,35.7333,140.8333,14.33,52,45,3.43,JP,2025-03-23
398,villa ocampo,-28.4875,-59.3551,21.93,89,100,0.82,AR,2025-03-23
399,lorengau,-2.0226,147.2712,28.76,70,95,1.68,PG,2025-03-23
400,buala,-8.145,159.5921,27.39,82,100,3.3,SB,2025-03-23
401,nhlangano,-27.1167,31.2,17.36,96,4,0.36,SZ,2025-03-23
402,yuzhno-kurilsk,44.0306,145.8556,0.93,73,37,2.97,RU,2025-03-23
403,bolgatanga,10.7856,-0.8514,33.79,25,99,1.41,GH,2025-03-23
404,abidjan,5.3094,-4.0197,27.98,83,40,2.57,CI,2025-03-23
405,ingersoll,43.0334,-80.883,0.27,47,100,5.79,CA,2025-03-23
406,chinchilla,-26.75,150.6333,23.27,71,99,1.79,AU,2025-03-23
407,hurricane,37.1753,-113.2899,22.14,23,53,3.05,US,2025-03-23
408,xinyuan,37.3,99.0,-7.18,29,10,3.19,CN,2025-03-23
409,sinabang,2.4803,96.3801,25.33,85,79,1.28,ID,2025-03-23
410,sisimiut,66.9395,-53.6735,-8.07,72,100,5.82,GL,2025-03-23
411,aripuana,-9.1667,-60.6333,24.24,97,78,0.76,BR,2025-03-23
412,santo antonio,-6.3106,-35.4789,26.7,79,6,4.2,BR,2025-03-23
413,taro,-8.3862,115.28,20.32,80,85,0.4,ID,2025-03-23
414,dolores,-36.3132,-57.6792,17.26,92,87,4.68,AR,2025-03-23
415,nabire,-3.3667,135.4833,26.65,80,81,0.8,ID,2025-03-23
416,wynyard,-41.0,145.7167,16.7,64,7,1.79,AU,2025-03-23
417,jinghong,21.991,100.7341,19.56,49,46,1.4,CN,2025-03-23
418,thal,35.4791,72.2439,4.77,67,72,2.18,PK,2025-03-23
419,mount isa,-20.7333,139.5,23.85,89,100,4.63,AU,2025-03-23
420,conde,-7.2597,-34.9075,26.54,82,0,3.09,BR,2025-03-23
421,newman,37.3138,-121.0208,23.13,45,54,2.24,US,2025-03-23
422,palikir - national government center,6.9248,158.1611,31.41,67,40,3.09,FM,2025-03-23
423,weno,7.4515,151.8468,27.88,78,99,9.42,FM,2025-03-23
424,nelson,-41.2833,173.2833,19.36,70,20,1.97,NZ,2025-03-23
425,luderitz,-26.6481,15.1594,17.58,88,7,2.61,NA,2025-03-23
426,boueni,-12.9025,45.0761,27.99,76,82,2.82,YT,2025-03-23
427,buka,40.8108,69.1986,19.71,45,100,3.22,UZ,2025-03-23
428,zliten,32.4674,14.5687,26.46,15,100,6.96,LY,2025-03-23
429,kerema,-7.9631,145.7785,28.15,77,99,2.14,PG,2025-03-23
430,ishigaki,24.3448,124.1572,20.5,67,20,2.06,JP,2025-03-23
431,mwinilunga,-11.7358,24.4293,16.72,97,100,1.16,ZM,2025-03-23
432,alofi,-19.0595,-169.9187,29.94,66,40,4.63,NU,2025-03-23
433,lata,40.1629,-8.3327,5.79,93,19,0.9,PT,2025-03-23
434,alice springs,-23.7,133.8833,19.39,97,100,4.12,AU,2025-03-23
435,labuan,5.2767,115.2417,26.11,88,40,0.0,MY,2025-03-23
436,takoradi,4.8845,-1.7554,27.21,84,84,2.63,GH,2025-03-23
437,canico,32.6333,-16.85,14.47,78,40,6.69,PT,2025-03-23
438,bouznika,33.7894,-7.1597,12.64,75,21,2.57,MA,2025-03-23
439,mocimboa,-11.3167,40.35,24.96,91,47,2.36,MZ,2025-03-23
440,ligny-en-barrois,48.6886,5.3254,8.14,90,100,0.42,FR,2025-03-23
441,acarau,-2.8856,-40.12,25.71,86,13,4.43,BR,2025-03-23
442,san pedro pochutla,15.7333,-96.4667,30.69,47,57,3.74,MX,2025-03-23
443,chamical,-30.36,-66.314,17.2,82,100,2.22,AR,2025-03-23
444,trairi,-3.2778,-39.2689,26.95,84,13,2.15,BR,2025-03-23
445,eyl,7.9803,49.8164,26.58,86,32,4.93,SO,2025-03-23
446,oktyabr'skiy,54.4815,53.471,-5.81,89,6,1.49,RU,2025-03-23
447,batesville,35.7698,-91.641,21.86,41,0,3.6,US,2025-03-23
448,warmbad,-28.45,18.7333,23.39,41,0,4.18,NA,2025-03-23
449,aykhal,66.0,111.5,-20.35,100,99,3.46,RU,2025-03-23
450,hailar,49.2,119.7,-6.68,74,23,7.07,CN,2025-03-23
451,stephenville,32.2207,-98.2023,25.14,30,99,8.31,US,2025-03-23
452,alta,69.9689,23.2717,0.64,58,38,2.06,NO,2025-03-23
453,uliastay,47.7417,96.8444,-6.33,97,98,1.43,MN,2025-03-23
454,polignano a mare,40.9959,17.2159,15.41,89,100,7.81,IT,2025-03-23
455,aldinga beach,-35.2793,138.4604,21.77,66,0,6.74,AU,2025-03-23
456,puerto baquerizo moreno,-0.9,-89.6,25.17,87,98,1.11,EC,2025-03-23
457,iskilip,40.7353,34.4739,6.87,52,100,0.9,TR,2025-03-23
458,shahrisabz,39.0578,66.8342,13.88,76,100,3.9,UZ,2025-03-23
459,galax,36.6612,-80.924,16.53,30,75,5.14,US,2025-03-23
460,kolyshley,52.7005,44.5367,-0.07,61,4,2.25,RU,2025-03-23
461,lodja,-3.4833,23.4333,19.48,99,87,0.31,CD,2025-03-23
462,sainyabuli,19.25,101.75,20.22,58,2,0.5,LA,2025-03-23
463,portland,45.5234,-122.6762,14.68,78,100,5.36,US,2025-03-23
464,lhasa,29.65,91.1,-2.88,36,33,2.24,CN,2025-03-23
465,ballina,-28.8667,153.5667,23.13,90,100,1.27,AU,2025-03-23
466,tukrah,32.5341,20.5791,19.95,23,9,12.42,LY,2025-03-23
467,hansot,21.5833,72.8,26.66,41,2,2.75,IN,2025-03-23
468,ardestan,33.3761,52.3694,11.55,35,0,2.33,IR,2025-03-23
469,saint-joseph,-21.3667,55.6167,24.21,82,62,2.46,RE,2025-03-23
470,solnechnyy,50.7214,136.6319,-6.61,94,100,2.94,RU,2025-03-23
471,fada,7.25,4.0667,24.68,90,100,1.37,NG,2025-03-23
472,klyuchi,52.2667,79.1667,-2.2,74,19,7.73,RU,2025-03-23
473,amga,60.8953,131.9608,-21.18,99,95,0.68,RU,2025-03-23
474,homer,59.6425,-151.5483,6.54,69,75,5.14,US,2025-03-23
475,ust'-ilimsk,58.0006,102.6619,-10.99,97,100,0.97,RU,2025-03-23
476,bassendean,-31.9,115.95,22.04,68,0,6.69,AU,2025-03-23
477,nar'yan-mar,67.6713,53.087,-7.81,94,97,5.91,RU,2025-03-23
478,yebaishou,41.3975,119.6408,6.3,30,90,7.78,CN,2025-03-23
479,berlin,52.5244,13.4105,9.36,73,75,2.06,DE,2025-03-23
480,pucallpa,-8.3791,-74.5539,24.92,75,40,2.06,PE,2025-03-23
481,andirin,37.5776,36.3549,2.34,81,80,0.86,TR,2025-03-23
482,port alberni,49.2413,-124.8028,8.35,93,100,0.89,CA,2025-03-23
483,la punta,-33.1837,-66.3127,9.9,98,100,5.57,AR,2025-03-23
484,boguchany,58.3814,97.4531,-8.02,98,100,1.58,RU,2025-03-23
485,odugattur,12.7667,78.9,22.02,88,45,0.93,IN,2025-03-23
486,bubaque,11.2833,-15.8333,23.04,73,27,5.22,GW,2025-03-23
487,bowleys quarters,39.3354,-76.3902,12.71,41,0,3.6,US,2025-03-23
488,kapa'a,22.0752,-159.319,27.18,71,0,4.12,US,2025-03-23
489,teguise,29.0605,-13.564,15.5,68,40,5.66,ES,2025-03-23
490,sao jose da coroa grande,-8.8978,-35.1478,26.89,71,6,4.11,BR,2025-03-23
491,masumbwe,-3.6333,32.1833,18.24,94,99,1.04,TZ,2025-03-23
492,isyangulovo,52.1909,52.1909,-2.76,70,0,3.21,RU,2025-03-23
493,carutapera,-1.195,-46.02,25.02,89,81,2.93,BR,2025-03-23
494,luanda,-8.8368,13.2343,25.79,83,42,2.99,AO,2025-03-23
495,chul'man,56.8479,124.9104,-11.18,91,100,5.45,RU,2025-03-23
496,malvik,63.4333,10.6833,4.12,70,0,6.69,NO,2025-03-23
497,oppdal,62.5943,9.6912,2.58,75,0,5.86,NO,2025-03-23
498,alotau,-10.3069,150.4462,29.39,69,84,2.98,PG,2025-03-23
499,baykalovo,57.3981,63.7684,-9.8,91,21,4.43,RU,2025-03-23
500,mezhdurechenskiy,59.6,65.9333,-11.12,81,10,4.93,RU,2025-03-23
501,happy valley-goose bay,53.3168,-60.3315,-9.37,77,75,5.66,CA,2025-03-23
502,kudahuvadhoo,2.6708,72.8944,28.67,74,2,5.38,MV,2025-03-23
503,isoka,-10.1606,32.6335,17.34,98,100,0.26,ZM,2025-03-23
504,naliya,23.2667,68.8333,24.05,61,0,4.68,IN,2025-03-23
505,namdrik,5.5994,168.1028,27.27,82,76,8.79,MH,2025-03-23
506,kerikeri,-35.2268,173.9474,23.09,50,18,1.09,NZ,2025-03-23
507,iowa park,33.9515,-98.6687,22.58,24,0,8.75,US,2025-03-23
508,queenstown,-31.8976,26.8753,17.41,93,29,2.47,ZA,2025-03-23
509,tavricheskoye,54.5851,73.6395,-3.05,96,100,6.98,RU,2025-03-23
510,vilyuysk,63.7553,121.6247,-14.46,95,100,3.09,RU,2025-03-23
511,sibolga,1.7427,98.7792,24.48,88,99,1.34,ID,2025-03-23
512,hami,42.8,93.45,10.37,25,68,0.76,CN,2025-03-23
513,pasuquin,18.3328,120.6177,24.1,69,75,2.06,PH,2025-03-23
514,mandimba,-14.3548,35.6515,19.07,96,52,0.41,MZ,2025-03-23
515,imperatriz,-5.5264,-47.4917,26.03,94,33,0.95,BR,2025-03-23
516,xunchang,28.4543,104.715,11.17,74,23,1.61,CN,2025-03-23
517,honmachi,32.5,130.6,15.12,77,91,2.99,JP,2025-03-23
518,znamenskoye,57.1281,73.8282,-10.39,86,94,6.11,RU,2025-03-23
519,vejle,55.7093,9.5357,4.58,84,82,4.48,DK,2025-03-23
520,zaozersk,69.4005,32.4476,-3.41,79,31,4.35,RU,2025-03-23
521,strezhevoy,60.7333,77.5889,-14.28,98,99,2.8,RU,2025-03-23
522,kyren,51.6828,102.1408,-5.06,78,100,0.24,RU,2025-03-23
523,lokhvytsya,50.3678,33.2602,6.52,64,100,4.14,UA,2025-03-23
524,trincomalee,8.5711,81.2335,28.43,74,25,5.0,LK,2025-03-23
525,timimoun,29.2639,0.231,22.9,22,1,4.12,DZ,2025-03-23
526,narimanov,46.6927,47.8498,7.16,51,100,6.83,RU,2025-03-23
527,bryan,30.6744,-96.37,27.95,58,40,4.12,US,2025-03-23
528,nadi,-17.8,177.4167,31.48,58,75,2.57,FJ,2025-03-23
529,igrim,63.1906,64.4162,-15.36,89,7,2.12,RU,2025-03-23
530,dapa,9.7594,126.0531,26.54,81,51,1.88,PH,2025-03-23
531,cole harbour,44.6724,-63.4751,-1.4,79,100,10.8,CA,2025-03-23
532,quelimane,-17.8786,36.8883,26.97,74,0,0.0,MZ,2025-03-23
533,tongliao,43.6125,122.2653,6.0,21,100,8.02,CN,2025-03-23
534,trevelin,-43.0858,-71.4639,12.71,51,16,1.58,AR,2025-03-23
535,chita,52.0333,113.55,-12.06,67,10,1.0,RU,2025-03-23
536,balqash,46.8481,74.995,-0.99,71,100,5.03,KZ,2025-03-23
537,holualoa,19.6228,-155.9522,24.37,81,7,2.24,US,2025-03-23
538,diego de almagro,-26.3667,-70.05,21.45,36,9,2.74,CL,2025-03-23
539,eregli,37.5133,34.0467,5.16,47,42,0.76,TR,2025-03-23
540,tejen,37.3834,60.5054,12.38,63,100,6.02,TM,2025-03-23
541,el bolson,-41.9667,-71.5167,11.66,49,54,0.36,AR,2025-03-23
542,kyabe,9.4515,18.9449,27.5,13,99,2.81,TD,2025-03-23
543,punta del este,-34.9667,-54.95,21.89,78,75,5.14,UY,2025-03-23
544,kayangel,8.0823,134.7173,28.46,75,98,7.44,PW,2025-03-23
545,tambovka,50.0969,128.0489,-1.93,88,100,6.98,RU,2025-03-23
546,senatobia,34.6176,-89.9687,21.65,79,100,4.93,US,2025-03-23
547,prineville,44.2999,-120.8345,10.54,64,0,7.72,US,2025-03-23
548,vadso,70.0744,29.7487,-0.7,58,0,2.06,NO,2025-03-23
549,kirensk,57.7853,108.1119,-19.17,100,85,0.67,RU,2025-03-23
550,castillos,-34.1667,-53.8333,19.72,86,75,2.92,UY,2025-03-23
551,macin,45.2437,28.1356,7.96,87,100,3.68,RO,2025-03-23
552,plastun,44.7561,136.2939,1.43,59,51,1.73,RU,2025-03-23
553,amungan,15.3652,119.9582,25.13,72,100,0.74,PH,2025-03-23
554,vila velha,-20.3297,-40.2925,25.91,83,100,2.06,BR,2025-03-23
555,khash,28.2211,61.2158,18.73,34,74,2.42,IR,2025-03-23
556,rawlins,41.7911,-107.2387,7.38,41,20,8.23,US,2025-03-23
557,isiro,2.7739,27.616,18.7,100,100,1.04,CD,2025-03-23
558,yemva,62.59,50.8594,-0.06,97,100,2.13,RU,2025-03-23
559,pangoa,-12.1167,-73.0,23.06,98,100,0.47,PE,2025-03-23
560,maragogi,-9.0122,-35.2225,26.44,73,10,3.67,BR,2025-03-23
561,salahonda,2.1019,-78.7217,27.51,82,93,5.82,CO,2025-03-23
562,harstad,68.799,16.5293,3.32,54,0,4.88,NO,2025-03-23
563,akrehamn,59.2667,5.1833,6.23,75,75,2.57,NO,2025-03-23
564,chibougamau,49.9168,-74.3659,-11.21,80,0,2.06,CA,2025-03-23
