City_ID,City,Lat,Lng,Max Temp,Humidity,Cloudiness,Wind Speed,Country,Date
0,boca do acre,-8.7522,-67.3978,30.32,66,23,1.87,BR,2025-03-24
1,upington,-28.4478,21.2561,27.21,57,50,1.54,ZA,2025-03-24
2,aasiaat,68.7098,-52.8699,-9.9,80,100,1.98,GL,2025-03-24
3,puerto quijarro,-17.7833,-57.7667,31.5,55,100,1.35,BO,2025-03-24
4,waitangi,-43.9535,-176.5597,14.9,98,7,1.34,NZ,2025-03-24
5,constantia,44.1833,28.65,11.84,86,100,4.32,RO,2025-03-24
6,west island,-12.1568,96.8225,26.99,94,75,4.12,CC,2025-03-24
7,san patricio,28.017,-97.5169,27.51,68,59,2.93,US,2025-03-24
8,albany,42.6001,-73.9662,5.87,90,100,1.34,US,2025-03-24
9,bilibino,68.0546,166.4372,-31.27,97,71,2.35,RU,2025-03-24
10,port alfred,-33.5906,26.891,21.77,98,100,4.88,ZA,2025-03-24
11,pisco,-13.7,-76.2167,25.16,72,0,3.6,PE,2025-03-24
12,merritt,50.1123,-120.7942,7.0,86,100,0.89,CA,2025-03-24
13,onega,63.9061,38.1404,-3.18,93,16,3.89,RU,2025-03-24
14,ringkobing,56.0901,8.244,5.68,86,87,2.06,DK,2025-03-24
15,ati,13.2154,18.3353,28.72,9,10,5.39,TD,2025-03-24
16,port-aux-francais,-49.35,70.2167,5.39,71,44,8.28,TF,2025-03-24
17,youhao,47.8667,128.8333,-7.02,92,100,0.83,CN,2025-03-24
18,port mathurin,-19.6833,63.4167,26.99,77,7,5.45,MU,2025-03-24
19,blackmans bay,-43.0167,147.3167,9.69,92,0,1.8,AU,2025-03-24
20,bethel,41.3712,-73.414,6.0,98,100,2.06,US,2025-03-24
21,stephenville,32.2207,-98.2023,24.18,22,0,3.09,US,2025-03-24
22,tuskegee,32.424,-85.6916,17.5,88,100,5.5,US,2025-03-24
23,punta arenas,-53.15,-70.9167,14.06,47,0,9.77,CL,2025-03-24
24,nuh,28.1167,77.0167,22.47,14,0,1.48,IN,2025-03-24
25,adamstown,-25.066,-130.1015,22.44,86,100,4.58,PN,2025-03-24
26,sidney,-33.8679,151.2073,20.49,84,98,0.45,AU,2025-03-24
27,kingston,17.997,-76.7936,32.69,58,20,12.86,JM,2025-03-24
28,qarazhal,48.0078,70.7903,-7.37,84,7,7.0,KZ,2025-03-24
29,puerto natales,-51.7236,-72.4875,19.25,52,75,9.26,CL,2025-03-24
30,lerwick,60.1545,-1.1494,8.93,96,100,11.27,GB,2025-03-24
31,benjamin constant,-4.3831,-70.0311,25.05,94,40,2.06,BR,2025-03-24
32,kirensk,57.7853,108.1119,-17.52,99,97,0.61,RU,2025-03-24
33,cockburn town,21.4612,-71.1419,26.35,75,1,9.2,TC,2025-03-24
34,karema,-6.8205,30.4389,22.47,82,100,0.93,TZ,2025-03-24
35,brisas de zicatela,15.8369,-97.0419,29.87,51,0,4.12,MX,2025-03-24
36,flying fish cove,-10.4217,105.6791,28.26,80,100,3.6,CX,2025-03-24
37,zouerate,22.7187,-12.4521,23.28,22,0,7.19,MR,2025-03-24
38,ilanskiy,56.2358,96.065,-3.02,88,100,2.84,RU,2025-03-24
39,soure,-0.7167,-48.5233,27.93,78,70,4.77,BR,2025-03-24
40,labrador city,52.9463,-66.9114,-10.99,65,0,3.6,CA,2025-03-24
41,karratha,-20.7377,116.8463,30.26,66,61,2.12,AU,2025-03-24
42,utrik,11.2278,169.8474,26.58,76,98,7.47,MH,2025-03-24
43,puerto ayora,-0.7393,-90.3518,31.98,92,100,2.68,EC,2025-03-24
44,porto novo,6.4965,2.6036,29.9,77,12,3.5,BJ,2025-03-24
45,dudinka,69.4058,86.1778,-26.64,100,35,2.79,RU,2025-03-24
46,chapeco,-27.0964,-52.6183,25.67,60,40,3.09,BR,2025-03-24
47,bontang,0.1333,117.5,25.2,89,100,2.22,ID,2025-03-24
48,loreto,22.2667,-101.9667,25.48,12,100,3.86,MX,2025-03-24
49,college,64.8569,-147.8028,-4.75,57,0,0.45,US,2025-03-24
50,klyuchi,52.2667,79.1667,-6.7,80,100,7.47,RU,2025-03-24
51,tianpeng,30.9866,103.9393,14.01,61,0,1.43,CN,2025-03-24
52,mili,6.0815,171.735,27.0,85,99,8.73,MH,2025-03-24
53,ribeira grande,38.5167,-28.7,15.18,84,40,4.63,PT,2025-03-24
54,tiksi,71.6872,128.8694,-18.94,100,100,3.05,RU,2025-03-24
55,port elizabeth,-33.918,25.5701,21.17,96,40,6.17,ZA,2025-03-24
56,santa elena de uairen,4.6167,-61.1333,28.85,35,94,1.99,VE,2025-03-24
57,djenne,13.9061,-4.5533,34.52,27,10,2.03,ML,2025-03-24
58,cabo san lucas,22.8909,-109.9124,24.62,47,40,3.6,MX,2025-03-24
59,siwa oasis,29.2041,25.5195,21.62,19,97,3.53,EG,2025-03-24
60,iqaluit,63.7506,-68.5145,-17.15,71,100,10.29,CA,2025-03-24
61,thunder bay,48.4001,-89.3168,-0.54,78,100,5.66,CA,2025-03-24
62,grytviken,-54.2811,-36.5092,4.84,96,50,3.79,GS,2025-03-24
63,san antonio de pale,-1.4014,5.6325,27.69,84,30,3.17,GQ,2025-03-24
64,uturoa,-16.7333,-151.4333,27.55,77,19,8.22,PF,2025-03-24
65,airuk,7.2772,168.8203,27.53,78,30,8.46,MH,2025-03-24
66,hithadhoo,-0.6,73.0833,28.14,74,9,0.07,MV,2025-03-24
67,russkaya polyana,49.417,31.9201,9.98,54,100,8.25,UA,2025-03-24
68,badger,64.8,-147.5333,-4.8,62,0,0.0,US,2025-03-24
69,hermanus,-34.4187,19.2345,19.89,70,0,5.76,ZA,2025-03-24
70,gwanda,-20.9333,29.0,21.21,53,78,2.57,ZW,2025-03-24
71,ushuaia,-54.8,-68.3,10.81,54,0,12.35,AR,2025-03-24
72,pizarro,4.9533,-77.366,28.68,79,100,3.97,CO,2025-03-24
73,bredasdorp,-34.5322,20.0403,19.82,58,10,2.16,ZA,2025-03-24
74,nova sintra,14.8667,-24.7167,20.98,80,9,10.35,CV,2025-03-24
75,palikir - national government center,6.9248,158.1611,27.41,74,75,3.6,FM,2025-03-24
76,lihue,21.9789,-159.3672,24.3,77,0,2.57,US,2025-03-24
77,edinburgh of the seven seas,-37.0676,-12.3116,19.01,90,100,11.16,SH,2025-03-24
78,mount gambier,-37.8333,140.7667,11.5,96,9,2.34,AU,2025-03-24
79,carbonear,47.7332,-53.2148,4.86,54,70,6.63,CA,2025-03-24
80,lucas,41.6501,-83.6666,10.22,53,100,10.29,US,2025-03-24
81,hamilton,39.1834,-84.5333,13.23,38,20,12.35,US,2025-03-24
82,olonkinbyen,70.9221,-8.7187,-7.37,57,100,6.87,SJ,2025-03-24
83,invercargill,-46.4,168.35,10.92,77,100,0.45,NZ,2025-03-24
84,isafjordur,66.0755,-23.124,-2.72,93,100,4.38,IS,2025-03-24
85,udachny,66.4167,112.4,-22.75,100,100,2.16,RU,2025-03-24
86,santa cruz,-17.8,-63.1667,30.37,87,75,5.14,BO,2025-03-24
87,tazovsky,67.4667,78.7,-26.72,100,84,2.5,RU,2025-03-24
88,egyek,47.6333,20.9,10.54,94,100,3.41,HU,2025-03-24
89,colonia,50.9333,6.95,11.05,80,0,0.51,DE,2025-03-24
90,saint-pierre,-21.3393,55.4781,25.61,83,0,2.57,RE,2025-03-24
91,tolanaro,-25.0319,46.9987,24.0,92,25,1.94,MG,2025-03-24
92,kenai,60.5544,-151.2583,0.64,75,100,5.66,US,2025-03-24
93,sao jose da coroa grande,-8.8978,-35.1478,29.12,67,11,3.76,BR,2025-03-24
94,chela,34.069,104.4619,4.8,46,0,1.8,CN,2025-03-24
95,chambas,22.1928,-78.9136,30.97,45,44,8.08,CU,2025-03-24
96,avarua,-21.2078,-159.775,28.03,74,40,5.66,CK,2025-03-24
97,selfoss,63.9331,-20.9971,3.31,97,100,4.87,IS,2025-03-24
98,yellowknife,62.456,-114.3525,-4.77,75,75,5.66,CA,2025-03-24
99,vernon,50.2581,-119.2691,7.56,88,99,0.51,CA,2025-03-24
100,mount isa,-20.7333,139.5,24.2,94,100,2.57,AU,2025-03-24
101,trebechovice pod orebem,50.201,15.9922,9.58,86,99,0.45,CZ,2025-03-24
102,as samawah,31.332,45.2944,17.05,23,0,5.81,IQ,2025-03-24
103,lipljan,42.5217,21.1258,11.99,90,75,2.57,XK,2025-03-24
104,inhambupe,-11.7844,-38.3531,31.47,43,5,7.09,BR,2025-03-24
105,arraial do cabo,-22.9661,-42.0278,27.43,93,75,2.06,BR,2025-03-24
106,kavalerovo,44.2661,135.0572,-1.63,48,0,3.36,RU,2025-03-24
107,queenstown,-31.8976,26.8753,18.82,70,100,2.7,ZA,2025-03-24
108,talnakh,69.4865,88.3972,-26.37,96,64,1.05,RU,2025-03-24
109,palmer,42.1584,-72.3287,3.09,84,100,0.45,US,2025-03-24
110,tazacorte,28.629,-17.9293,18.31,71,40,7.2,ES,2025-03-24
111,peruibe,-24.32,-46.9983,28.5,74,47,1.69,BR,2025-03-24
112,qamdo,31.1667,97.2333,-6.22,58,0,0.3,CN,2025-03-24
113,harper,4.375,-7.7169,27.33,81,84,4.08,LR,2025-03-24
114,taro,-8.3862,115.28,21.06,94,100,0.25,ID,2025-03-24
115,san angelo,31.4638,-100.437,25.17,21,0,1.34,US,2025-03-24
116,alotau,-10.3069,150.4462,25.09,89,100,2.53,PG,2025-03-24
117,shimoda,34.6667,138.95,14.55,75,0,7.08,JP,2025-03-24
118,toguchin,55.2353,84.3858,-9.03,93,98,5.7,RU,2025-03-24
119,harnai,30.1005,67.9374,23.29,18,100,1.56,PK,2025-03-24
120,olonets,60.9847,32.9698,4.82,85,100,6.91,RU,2025-03-24
121,tabou,4.423,-7.3528,27.27,81,50,3.86,CI,2025-03-24
122,niafunke,15.9322,-3.9906,35.47,29,96,5.35,ML,2025-03-24
123,bayanaul,50.7889,75.6956,-8.26,75,100,7.3,KZ,2025-03-24
124,sitka,57.0531,-135.33,6.94,81,100,4.12,US,2025-03-24
125,sidi yahia el gharb,34.3065,-6.3062,10.88,78,0,2.43,MA,2025-03-24
126,vila velha,-20.3297,-40.2925,30.92,70,20,6.17,BR,2025-03-24
127,anadyr,64.75,177.4833,-25.72,76,0,3.0,RU,2025-03-24
128,antonio enes,-16.2325,39.9086,25.46,80,27,3.57,MZ,2025-03-24
129,nuku'alofa,-21.1333,-175.2,26.19,94,75,2.57,TO,2025-03-24
130,saldanha,-33.0117,17.9442,17.77,86,0,4.23,ZA,2025-03-24
131,papatowai,-46.5619,169.4708,11.15,81,100,2.39,NZ,2025-03-24
132,glace bay,46.1969,-59.957,0.79,52,75,3.6,CA,2025-03-24
133,cururupu,-1.8283,-44.8683,30.01,58,90,2.77,BR,2025-03-24
134,nyazepetrovsk,56.0531,59.6028,-5.25,98,20,0.94,RU,2025-03-24
135,muroto-misakicho,33.2833,134.15,16.12,76,0,4.9,JP,2025-03-24
136,coronel suarez,-37.4547,-61.9334,16.69,73,100,5.09,AR,2025-03-24
137,tutoia,-2.7619,-42.2744,28.7,71,100,4.91,BR,2025-03-24
138,sinabang,2.4803,96.3801,26.53,81,100,1.08,ID,2025-03-24
139,linxia chengguanzhen,35.6003,103.2064,8.3,33,0,1.96,CN,2025-03-24
140,ozerne,50.1782,28.7338,8.95,75,100,5.59,UA,2025-03-24
141,yar,58.249,52.1026,-6.49,98,20,1.53,RU,2025-03-24
142,qaqortoq,60.7167,-46.0333,0.89,91,100,1.6,GL,2025-03-24
143,verkhnevilyuysk,63.4453,120.3167,-23.14,100,100,0.8,RU,2025-03-24
144,georgetown,5.4112,100.3354,28.49,79,20,1.54,MY,2025-03-24
145,taunggyi,20.7833,97.0333,17.01,48,0,0.73,MM,2025-03-24
146,margaret river,-33.95,115.0667,18.32,93,15,4.64,AU,2025-03-24
147,gravellona toce,45.9286,8.4321,10.51,81,44,1.36,IT,2025-03-24
148,kailua-kona,19.6406,-155.9956,26.62,72,20,3.09,US,2025-03-24
149,stanley,54.868,-1.6985,8.32,64,0,6.17,GB,2025-03-24
150,susuman,62.7833,148.1667,-29.2,100,95,1.67,RU,2025-03-24
151,kone,-21.0595,164.8658,24.07,89,75,1.54,NC,2025-03-24
152,jamestown,42.097,-79.2353,8.92,66,100,7.72,US,2025-03-24
153,lae,-6.7221,146.9847,23.12,93,80,3.22,PG,2025-03-24
154,padang,-0.9492,100.3543,25.33,88,100,1.97,ID,2025-03-24
155,anchau,10.9597,8.3916,27.06,12,100,2.93,NG,2025-03-24
156,merizo village,13.2658,144.6691,26.37,75,100,7.06,GU,2025-03-24
157,itamaraca,-7.7478,-34.8256,29.79,68,4,3.02,BR,2025-03-24
158,suomussalmi,64.8869,28.9078,0.25,92,100,5.8,FI,2025-03-24
159,nizhnyaya omka,55.4338,74.9426,-8.55,89,100,7.17,RU,2025-03-24
160,turbat,26.0023,63.044,24.52,51,21,1.68,PK,2025-03-24
161,minas de marcona,-15.2119,-75.1103,22.62,57,3,6.12,PE,2025-03-24
162,revelstoke,50.9832,-118.2023,6.92,88,100,1.03,CA,2025-03-24
163,afaahiti,-17.75,-149.2833,28.93,80,89,9.07,PF,2025-03-24
164,ibara,34.6,133.4667,14.06,72,0,4.22,JP,2025-03-24
165,keflavik,64.0049,-22.5624,6.11,94,100,8.23,IS,2025-03-24
166,hirara,24.8,125.2833,20.26,81,20,4.12,JP,2025-03-24
167,whitehorse,60.7161,-135.0538,0.01,80,75,0.0,CA,2025-03-24
168,porbandar,21.6422,69.6093,26.34,51,0,3.91,IN,2025-03-24
169,mariehamn,60.0973,19.9348,2.99,87,0,7.2,AX,2025-03-24
170,qala i naw,34.9874,63.1289,4.23,96,100,5.23,AF,2025-03-24
171,orange walk,17.8333,-88.8333,32.96,48,100,4.59,BZ,2025-03-24
172,narman,40.3465,41.8703,-3.07,76,3,2.25,TR,2025-03-24
173,santa ana de yacuma,-13.75,-65.4333,35.36,64,75,6.17,BO,2025-03-24
174,carnarvon,-24.8667,113.6333,29.26,39,83,6.75,AU,2025-03-24
175,fengkou,30.0833,113.2667,17.91,59,0,3.92,CN,2025-03-24
176,grange,-34.9,138.4833,18.01,70,0,3.14,AU,2025-03-24
177,iskateley,67.6803,53.1512,-2.2,95,100,4.9,RU,2025-03-24
178,puerto baquerizo moreno,-0.9,-89.6,29.55,79,75,4.12,EC,2025-03-24
179,veinticinco de mayo,-35.4323,-60.1727,20.33,78,100,0.89,AR,2025-03-24
180,kodiak,57.79,-152.4072,2.73,87,100,5.66,US,2025-03-24
181,shunyi,40.125,116.6453,9.4,27,0,2.0,CN,2025-03-24
182,breyten,-26.3018,29.987,16.53,84,45,2.06,ZA,2025-03-24
183,enewetak,11.3474,162.3373,26.88,72,98,6.03,MH,2025-03-24
184,hasaki,35.7333,140.8333,14.34,67,0,5.31,JP,2025-03-24
185,aliwal north,-30.6937,26.7114,17.97,84,20,0.61,ZA,2025-03-24
186,porto seguro,-16.4497,-39.0647,28.57,62,40,7.72,BR,2025-03-24
187,warmbaths,-24.8833,28.2833,24.59,54,89,2.61,ZA,2025-03-24
188,qui nhon,13.7667,109.2333,19.04,92,71,2.21,VN,2025-03-24
189,yigo village,13.5361,144.8886,25.48,77,0,4.12,GU,2025-03-24
190,puerto madero,14.7208,-92.4215,34.69,63,40,7.72,MX,2025-03-24
191,wailua homesteads,22.0669,-159.378,23.96,78,0,2.57,US,2025-03-24
192,nova vicosa,-17.8919,-39.3719,29.08,61,1,6.72,BR,2025-03-24
193,murghob,38.1702,73.9667,-9.33,89,46,3.46,TJ,2025-03-24
194,pago pago,-14.2781,-170.7025,27.55,89,100,7.72,AS,2025-03-24
195,sao joao da barra,-21.6403,-41.0511,27.09,81,100,5.8,BR,2025-03-24
196,pacasmayo,-7.4006,-79.5714,24.7,68,28,5.85,PE,2025-03-24
197,cervantes,-39.05,-67.3833,19.69,26,0,2.49,AR,2025-03-24
198,nirmal,19.1,78.35,28.85,38,0,2.3,IN,2025-03-24
199,kiffa,16.6166,-11.4045,34.08,11,19,3.78,MR,2025-03-24
200,petropavlovsk-kamchatsky,53.0452,158.6483,-5.67,100,40,1.0,RU,2025-03-24
201,tura,25.5198,90.2201,19.37,48,0,1.79,IN,2025-03-24
202,walvis bay,-22.9575,14.5053,20.53,77,91,5.66,NA,2025-03-24
203,island harbour,50.724,-1.2758,8.47,85,100,0.45,GB,2025-03-24
204,tralee,52.2704,-9.7026,9.19,83,100,2.0,IE,2025-03-24
205,luderitz,-26.6481,15.1594,19.01,75,1,6.7,NA,2025-03-24
206,challapata,-18.9,-66.7667,16.78,34,68,3.29,BO,2025-03-24
207,raja,8.4596,25.678,27.19,14,62,1.86,SS,2025-03-24
208,port hedland,-20.3167,118.5667,28.34,89,100,2.57,AU,2025-03-24
209,leninskoye,41.7589,69.3864,8.48,93,100,3.71,KZ,2025-03-24
210,sodra sandby,56.5667,16.6167,3.57,90,19,4.51,SE,2025-03-24
211,kapa'a,22.0752,-159.319,24.71,77,0,2.57,US,2025-03-24
212,sao gabriel da cachoeira,-0.1303,-67.0892,29.01,69,40,2.57,BR,2025-03-24
213,port douglas,-16.4833,145.4667,25.82,88,100,1.48,AU,2025-03-24
214,matiari,25.5961,68.4467,26.02,26,0,6.26,PK,2025-03-24
215,callao,-12.0667,-77.15,25.16,69,0,5.14,PE,2025-03-24
216,kyabe,9.4515,18.9449,31.64,11,93,1.08,TD,2025-03-24
217,jayapura,-2.5333,140.7,21.59,92,100,1.9,ID,2025-03-24
218,banda aceh,5.5577,95.3222,26.01,82,96,2.91,ID,2025-03-24
219,haiku-pauwela,20.9219,-156.3051,25.58,71,20,2.68,US,2025-03-24
220,roven'ky,48.0833,39.3776,5.33,55,100,5.39,UA,2025-03-24
221,port lincoln,-34.7333,135.8667,17.64,83,0,6.66,AU,2025-03-24
222,gebeit,21.0667,36.3167,20.69,29,0,3.44,SD,2025-03-24
223,ta`u,-14.2336,-169.5144,28.17,80,35,8.6,AS,2025-03-24
224,recani,31.2846,-4.2688,19.23,20,100,7.16,MA,2025-03-24
225,uthal,25.8072,66.6219,23.83,57,0,4.33,PK,2025-03-24
226,tefenni,37.3097,29.7754,9.49,56,72,1.04,TR,2025-03-24
227,cabedelo,-6.9811,-34.8339,29.83,68,6,3.31,BR,2025-03-24
228,kangding,30.0513,101.9603,2.95,66,0,4.42,CN,2025-03-24
229,labytnangi,66.6572,66.4183,-15.07,96,63,2.08,RU,2025-03-24
230,antofagasta,-23.65,-70.4,20.24,79,21,3.3,CL,2025-03-24
231,kruisfontein,-34.0033,24.7314,19.94,88,100,4.03,ZA,2025-03-24
232,kourou,5.1552,-52.6478,26.59,78,74,4.6,GF,2025-03-24
233,malyye derbety,47.9547,44.6808,4.59,35,7,3.09,RU,2025-03-24
234,floro,61.5996,5.0328,6.79,93,75,11.32,NO,2025-03-24
235,montevideo,-34.8335,-56.1674,23.73,64,75,6.17,UY,2025-03-24
236,vilyuchinsk,52.9306,158.4028,-4.85,87,68,3.84,RU,2025-03-24
237,itoman,26.1247,127.6694,19.17,85,40,4.63,JP,2025-03-24
238,kharp,66.8014,65.8081,-8.55,96,91,2.23,RU,2025-03-24
239,chiredzi,-21.05,31.6667,22.58,60,58,1.52,ZW,2025-03-24
240,ilulissat,69.2167,-51.1,-6.99,68,75,1.54,GL,2025-03-24
241,burutu,5.3509,5.5076,27.36,80,54,2.65,NG,2025-03-24
242,montenegro,42.5,19.3,12.4,97,100,2.57,ME,2025-03-24
243,al jawf,29.5,38.75,16.26,22,0,1.4,SA,2025-03-24
244,taoudenni,22.6783,-3.9836,29.13,8,2,4.3,ML,2025-03-24
245,las heras,-46.5419,-68.9359,25.03,15,78,0.89,AR,2025-03-24
246,sidhi,24.4167,81.8833,23.7,18,0,0.26,IN,2025-03-24
247,vadso,70.0744,29.7487,3.76,48,0,5.14,NO,2025-03-24
248,al mayadin,35.0209,40.4535,16.64,30,0,2.17,SY,2025-03-24
249,lebu,-37.6167,-73.65,16.56,56,0,3.22,CL,2025-03-24
250,nar'yan-mar,67.6713,53.087,-2.42,96,100,4.81,RU,2025-03-24
251,radomyshl,50.4961,29.2291,8.85,73,100,5.99,UA,2025-03-24
252,koubia,11.5833,-11.9,30.46,33,100,1.16,GN,2025-03-24
253,burang,30.25,81.1667,-13.65,57,1,1.6,CN,2025-03-24
254,praia da vitoria,38.7333,-27.0667,16.03,77,20,1.6,PT,2025-03-24
255,lata,40.1629,-8.3327,9.51,89,100,2.35,PT,2025-03-24
256,sipalay,9.75,122.5,24.98,83,100,1.59,PH,2025-03-24
257,prince rupert,54.3161,-130.3201,9.05,73,100,7.72,CA,2025-03-24
258,conduaga,8.862,117.4893,24.68,90,99,2.52,PH,2025-03-24
259,kerikeri,-35.2268,173.9474,14.26,94,10,1.29,NZ,2025-03-24
260,quellon,-43.1167,-73.6167,14.96,63,0,4.68,CL,2025-03-24
261,opuwo,-18.0607,13.84,22.62,76,82,0.78,NA,2025-03-24
262,izyum,49.2088,37.2485,9.01,52,100,4.64,UA,2025-03-24
263,tofol,5.3248,163.0078,26.99,81,42,9.2,FM,2025-03-24
264,bei'an,46.4398,126.2373,-0.6,47,100,2.29,CN,2025-03-24
265,atafu village,-8.5421,-172.5159,28.23,79,4,5.35,TK,2025-03-24
266,carrick-on-suir,52.3492,-7.4131,8.85,81,100,1.46,IE,2025-03-24
267,marsannay-la-cote,47.271,4.989,10.87,82,0,2.06,FR,2025-03-24
268,mogadishu,2.0371,45.3438,27.8,83,96,5.07,SO,2025-03-24
269,longyearbyen,78.2186,15.6401,-11.09,79,40,4.12,SJ,2025-03-24
270,ivesti,45.6833,27.5167,13.56,65,100,6.82,RO,2025-03-24
271,aldinga beach,-35.2793,138.4604,15.67,76,0,4.91,AU,2025-03-24
272,campo mourao,-24.0456,-52.3831,29.76,49,72,2.83,BR,2025-03-24
273,dhidhdhoo,6.8833,73.1,28.56,75,8,2.45,MV,2025-03-24
274,progreso,21.2833,-89.6667,32.21,47,99,2.94,MX,2025-03-24
275,miresu mare,47.5,23.3333,11.32,99,100,0.97,RO,2025-03-24
276,igrim,63.1906,64.4162,-8.94,98,62,1.9,RU,2025-03-24
277,geraldton,-28.7667,114.6,25.62,42,0,2.06,AU,2025-03-24
278,shache,38.4167,77.2406,18.82,22,10,4.9,CN,2025-03-24
279,ola,59.5833,151.2833,-10.94,83,100,4.26,RU,2025-03-24
280,hawaiian paradise park,19.5933,-154.9731,24.73,78,75,1.54,US,2025-03-24
281,chonchi,-42.6128,-73.8092,18.56,37,0,1.66,CL,2025-03-24
282,alta,69.9689,23.2717,2.47,77,0,4.63,NO,2025-03-24
283,marathon,44.9,-89.7668,1.34,92,100,5.66,US,2025-03-24
284,gadzhiyevo,69.2551,33.3362,3.73,72,95,11.48,RU,2025-03-24
285,holualoa,19.6228,-155.9522,24.35,73,20,3.09,US,2025-03-24
286,alibag,18.6411,72.8792,26.88,73,7,2.05,IN,2025-03-24
287,hotan,37.0997,79.9269,19.11,11,100,1.94,CN,2025-03-24
288,caucasia,7.9865,-75.1935,33.82,52,98,1.1,CO,2025-03-24
289,igarka,67.4667,86.5833,-24.13,98,19,4.12,RU,2025-03-24
290,sortavala,61.7053,30.6918,4.15,97,100,5.7,RU,2025-03-24
291,warren,39.4334,-84.1666,12.8,41,40,11.83,US,2025-03-24
292,fort st. john,56.2499,-120.8529,6.94,39,20,10.29,CA,2025-03-24
293,gereida,11.2811,25.1414,26.61,9,0,4.59,SD,2025-03-24
294,mildura,-34.2,142.15,14.64,65,0,4.64,AU,2025-03-24
295,harmanli,41.9333,25.9,13.93,79,100,6.61,BG,2025-03-24
296,portland,45.5234,-122.6762,15.85,86,75,3.13,US,2025-03-24
297,kem',64.9555,34.5793,0.25,87,100,5.8,RU,2025-03-24
298,polyarnyy,69.1989,33.4478,3.79,71,81,11.44,RU,2025-03-24
299,ancud,-41.8697,-73.8203,17.52,54,0,1.06,CL,2025-03-24
300,namibe,-15.1961,12.1522,23.04,74,100,4.47,AO,2025-03-24
301,pandan,14.0453,124.1694,24.76,88,100,2.05,PH,2025-03-24
302,lianzhou,24.7811,112.3825,21.82,60,0,0.91,CN,2025-03-24
303,aykol,38.1751,77.2132,19.47,13,5,4.13,CN,2025-03-24
304,nemuro,43.3236,145.575,2.43,96,100,4.88,JP,2025-03-24
305,solsona,41.994,1.5171,7.72,86,99,1.81,ES,2025-03-24
306,noumea,-22.2763,166.4572,25.46,81,65,4.34,NC,2025-03-24
307,saint-philippe,-21.3585,55.7679,24.77,84,100,2.81,RE,2025-03-24
308,zahedan,29.4963,60.8629,17.66,32,0,7.2,IR,2025-03-24
309,el calafate,-50.3408,-72.2768,15.68,72,100,4.48,AR,2025-03-24
310,turpan,42.9333,89.1667,16.84,35,100,0.2,CN,2025-03-24
311,la ronge,55.1001,-105.2842,0.05,98,20,3.09,CA,2025-03-24
312,ust-nera,64.5667,143.2,-24.66,100,93,1.68,RU,2025-03-24
313,irtyshsk,53.3333,75.4572,-6.6,86,100,7.17,KZ,2025-03-24
314,yarmolyntsi,49.1924,26.8373,9.47,90,100,5.22,UA,2025-03-24
315,arno,60.1167,18.6333,3.89,72,100,5.18,SE,2025-03-24
316,keelung,25.1283,121.7419,20.93,57,0,0.3,TW,2025-03-24
317,al kharijah,25.4514,30.5464,22.07,14,0,4.38,EG,2025-03-24
318,patan,27.6667,85.3333,13.2,58,20,1.54,NP,2025-03-24
319,nova olinda do norte,-3.8881,-59.0942,28.97,82,53,2.05,BR,2025-03-24
320,novoutkinsk,56.993,59.5571,-3.01,94,93,2.66,RU,2025-03-24
321,luwuk,-0.9516,122.7875,22.37,94,100,1.7,ID,2025-03-24
322,waveland,30.2869,-89.3762,19.89,86,75,6.69,US,2025-03-24
323,tsiombe,-25.3,45.4833,23.37,89,42,4.56,MG,2025-03-24
324,okhotsk,59.3833,143.3,-13.33,83,100,3.85,RU,2025-03-24
325,karaton,-6.3424,106.1045,26.73,83,100,0.98,ID,2025-03-24
326,bluffton,32.2371,-80.8604,19.86,80,75,5.14,US,2025-03-24
327,pierre,44.3683,-100.351,11.1,56,75,7.72,US,2025-03-24
328,terra nova,-12.3667,-40.6667,29.6,58,42,1.84,BR,2025-03-24
329,belabo,4.9333,13.3,24.0,73,98,0.91,CM,2025-03-24
330,mirny,62.5353,113.9611,-23.34,100,98,1.56,RU,2025-03-24
331,guaruja,-23.9931,-46.2564,28.89,49,75,2.68,BR,2025-03-24
332,sola,-13.8833,167.55,26.98,77,100,5.72,VU,2025-03-24
333,freetown,8.484,-13.2299,27.84,69,75,5.66,SL,2025-03-24
334,chifeng,42.2683,118.9636,6.2,51,44,13.22,CN,2025-03-24
335,evergreen,39.6333,-105.3172,14.37,32,100,4.02,US,2025-03-24
336,vila franca do campo,37.7167,-25.4333,15.97,75,58,1.79,PT,2025-03-24
337,kondagaon,19.6,81.6667,20.82,36,0,1.41,IN,2025-03-24
338,saipan,15.1355,145.701,27.01,71,40,5.14,MP,2025-03-24
339,danjiangkou,32.5428,111.5086,17.75,37,0,2.06,CN,2025-03-24
340,viana do castelo,41.6932,-8.8329,12.02,85,0,6.8,PT,2025-03-24
341,st. john's,47.5649,-52.7093,4.6,62,75,10.8,CA,2025-03-24
342,wuwei,37.9281,102.6414,8.55,26,0,0.35,CN,2025-03-24
343,la passe,45.5549,-0.8967,11.29,79,0,3.73,FR,2025-03-24
344,yaren,-0.5472,166.916,26.82,84,49,5.2,NR,2025-03-24
345,maceio,-9.6658,-35.7353,28.58,60,20,7.2,BR,2025-03-24
346,labuan,5.2767,115.2417,25.08,99,20,0.0,MY,2025-03-24
347,mitu,1.1983,-70.1733,25.48,90,99,1.36,CO,2025-03-24
348,pacific grove,36.6177,-121.9166,18.72,64,0,1.54,US,2025-03-24
349,lazaro cardenas,17.9583,-102.2,28.06,55,88,4.91,MX,2025-03-24
350,nikolayevsk-on-amure,53.1406,140.73,-11.53,97,95,2.07,RU,2025-03-24
351,yeppoon,-23.1333,150.7333,24.68,78,100,8.29,AU,2025-03-24
352,puerto santa,-8.9906,-78.6456,23.39,74,16,4.99,PE,2025-03-24
353,codrington,-38.2667,141.9667,12.54,95,6,2.64,AU,2025-03-24
354,thompson,55.7435,-97.8558,-0.28,100,100,2.06,CA,2025-03-24
355,severomorsk,69.0689,33.4162,0.13,75,53,9.91,RU,2025-03-24
356,port-cartier,50.0334,-66.8654,-8.48,70,100,2.54,CA,2025-03-24
357,klaksvik,62.2266,-6.589,3.52,92,100,3.21,FO,2025-03-24
358,cidreira,-30.1811,-50.2056,28.59,69,55,5.41,BR,2025-03-24
359,montevista,7.6933,125.9889,21.96,97,98,0.67,PH,2025-03-24
360,crane,31.3974,-102.3501,24.4,21,0,3.8,US,2025-03-24
361,pegomas,43.5985,6.9303,11.49,84,0,1.03,FR,2025-03-24
362,nadi,-17.8,177.4167,24.09,96,75,0.0,FJ,2025-03-24
363,villarrica,-25.75,-56.4333,32.73,51,83,1.43,PY,2025-03-24
364,brokopondo,4.75,-55.1667,28.01,66,100,2.88,SR,2025-03-24
365,paoua,7.2427,16.4406,28.45,28,100,0.82,CF,2025-03-24
366,princeton,25.5384,-80.4089,28.69,63,75,5.14,US,2025-03-24
367,coaldale,49.7167,-112.6185,13.81,32,75,14.4,CA,2025-03-24
368,pathein,16.7833,94.7333,25.61,74,91,5.7,MM,2025-03-24
369,kuala tungkal,-0.8167,103.4667,25.25,92,100,2.85,ID,2025-03-24
370,reggane,26.7158,0.1714,29.56,7,77,4.65,DZ,2025-03-24
371,tanumah,27.1,44.1333,16.87,20,0,3.88,SA,2025-03-24
372,merowe,18.4833,31.8167,24.16,13,0,5.18,SD,2025-03-24
373,biltine,14.5333,20.9167,27.42,9,6,4.43,TD,2025-03-24
374,vorgashor,67.5833,63.95,-3.55,97,99,3.23,RU,2025-03-24
375,oak bay,48.4496,-123.3026,11.41,97,100,2.68,CA,2025-03-24
376,waiuku,-37.25,174.75,14.43,98,34,0.83,NZ,2025-03-24
377,mitchell,43.7094,-98.0298,11.19,57,100,6.17,US,2025-03-24
378,manistee,44.2445,-86.3242,1.55,88,100,10.29,US,2025-03-24
379,zakamensk,50.3741,103.2863,-7.18,60,84,1.1,RU,2025-03-24
380,puerto penasco,31.3167,-113.5333,23.09,44,0,4.12,MX,2025-03-24
381,mossel bay,-34.1831,22.146,18.83,83,10,0.46,ZA,2025-03-24
382,severobaykal'sk,55.65,109.3167,-12.08,92,100,1.66,RU,2025-03-24
383,northam,51.0333,-4.2167,8.79,87,11,2.27,GB,2025-03-24
384,newman,37.3138,-121.0208,23.11,51,0,0.45,US,2025-03-24
385,thinadhoo,0.5333,72.9333,28.42,73,4,1.73,MV,2025-03-24
386,pueblo nuevo,23.3833,-105.3833,23.04,9,97,3.39,MX,2025-03-24
387,kalmunai,7.4167,81.8167,26.06,87,28,2.78,LK,2025-03-24
388,sisimiut,66.9395,-53.6735,-5.54,72,100,3.62,GL,2025-03-24
389,tindouf,27.6711,-8.1474,20.92,23,0,9.77,DZ,2025-03-24
390,al bawiti,28.3492,28.8659,19.43,20,4,4.25,EG,2025-03-24
391,marsa alam,25.0757,34.8918,21.18,46,0,5.26,EG,2025-03-24
392,hammerfest,70.6634,23.6821,2.06,75,75,9.26,NO,2025-03-24
393,ngorongoro,-3.2397,35.4875,12.48,89,100,1.34,TZ,2025-03-24
394,masterton,-40.9597,175.6575,10.77,97,100,1.4,NZ,2025-03-24
395,judenburg,47.1667,14.6667,7.62,86,75,0.51,AT,2025-03-24
396,amga,60.8953,131.9608,-22.21,100,100,0.45,RU,2025-03-24
397,mikun',62.3547,50.0771,0.99,94,100,2.86,RU,2025-03-24
398,zambezi,-13.5432,23.1047,20.6,79,20,1.93,ZM,2025-03-24
399,smithers,54.7804,-127.1743,7.18,49,40,1.54,CA,2025-03-24
400,big spring,32.2504,-101.4787,24.62,17,0,5.14,US,2025-03-24
401,pass christian,30.3158,-89.2475,19.67,89,40,4.12,US,2025-03-24
402,dalnegorsk,44.5604,135.5701,-2.23,61,0,2.72,RU,2025-03-24
403,rio preto da eva,-2.6994,-59.6997,28.65,73,23,2.18,BR,2025-03-24
404,pallasovka,50.05,46.8833,3.78,37,83,2.28,RU,2025-03-24
405,emmiganur,15.7333,77.4833,28.37,46,30,3.36,IN,2025-03-24
406,neiafu,-18.65,-173.9833,28.38,83,75,2.57,TO,2025-03-24
407,galliano,29.4422,-90.2992,21.49,79,100,3.09,US,2025-03-24
408,turkmenbasy,40.0222,52.9552,7.23,74,100,4.12,TM,2025-03-24
409,tabas,33.5959,56.9244,13.22,56,21,5.3,IR,2025-03-24
410,new norfolk,-42.7826,147.0587,10.3,93,15,1.34,AU,2025-03-24
411,margate,51.3813,1.3862,8.1,85,16,1.54,GB,2025-03-24
412,estrela,-28.0611,-50.9383,25.52,43,48,2.42,BR,2025-03-24
413,kamphaeng phet,16.25,99.5,27.2,38,8,1.94,TH,2025-03-24
414,andergrove,-21.0833,149.1833,25.61,74,100,5.63,AU,2025-03-24
415,aleksandrovsk-sakhalinskiy,50.8975,142.1561,-2.84,84,87,6.64,RU,2025-03-24
416,dalandzadgad,43.5708,104.425,0.84,38,64,4.64,MN,2025-03-24
417,akrehamn,59.2667,5.1833,5.63,96,75,5.14,NO,2025-03-24
418,acapulco de juarez,16.8634,-99.8901,26.01,57,75,3.6,MX,2025-03-24
419,kupang,-10.1667,123.5833,26.91,84,75,1.03,ID,2025-03-24
420,puerto deseado,-47.7503,-65.8938,16.55,59,29,6.1,AR,2025-03-24
421,la'ie,21.6477,-157.9253,25.98,72,0,1.34,US,2025-03-24
422,colac,-38.3333,143.5833,12.69,94,11,1.86,AU,2025-03-24
423,balykshi,47.0667,51.8667,5.57,31,0,3.0,KZ,2025-03-24
424,coquimbo,-29.9533,-71.3436,17.81,69,100,3.6,CL,2025-03-24
425,kuala terengganu,5.3302,103.1408,27.02,87,20,1.54,MY,2025-03-24
426,daura,11.5538,11.4085,28.48,13,74,5.16,NG,2025-03-24
427,pedernales,18.0384,-71.744,31.29,46,8,11.25,DO,2025-03-24
428,cruz del eje,-30.7264,-64.8039,17.38,89,100,2.39,AR,2025-03-24
429,fredonia,42.4401,-79.3317,7.86,82,100,8.23,US,2025-03-24
430,nikel,69.4128,30.222,2.97,69,100,9.9,RU,2025-03-24
431,dakhla,23.6848,-15.958,17.71,76,0,13.38,EH,2025-03-24
432,moussoro,13.6408,16.4901,29.03,7,5,6.95,TD,2025-03-24
433,aleksandrovskoye,44.7142,43.0008,5.61,73,6,4.54,RU,2025-03-24
434,alice springs,-23.7,133.8833,18.96,91,3,2.57,AU,2025-03-24
435,chibougamau,49.9168,-74.3659,-5.01,72,100,7.2,CA,2025-03-24
436,mount pearl,47.5166,-52.7813,4.14,62,75,10.8,CA,2025-03-24
437,horsham,51.064,-0.3272,8.44,80,0,2.06,GB,2025-03-24
438,monrovia,6.3005,-10.7969,27.87,86,100,4.03,LR,2025-03-24
439,happy valley-goose bay,53.3168,-60.3315,-7.81,65,20,5.14,CA,2025-03-24
440,caleta de carquin,-11.0925,-77.6267,24.49,71,13,4.61,PE,2025-03-24
441,mosjoen,65.836,13.1908,6.38,81,75,4.63,NO,2025-03-24
442,madalena,41.2162,-8.3345,9.91,88,63,1.04,PT,2025-03-24
443,agadez,19.75,10.25,24.36,6,0,3.57,NE,2025-03-24
444,kamloops,50.6665,-120.3192,7.21,81,100,2.06,CA,2025-03-24
445,sungai penuh,-2.0833,101.3833,19.11,96,100,1.2,ID,2025-03-24
446,los chavez,34.727,-106.7384,21.99,19,0,1.79,US,2025-03-24
447,darwin,-12.4611,130.8418,25.49,90,100,2.57,AU,2025-03-24
448,cannonvale,-20.2833,148.7,25.54,77,100,6.67,AU,2025-03-24
449,erenhot,43.6475,111.9767,0.18,62,98,11.42,CN,2025-03-24
450,guiuan,11.0333,125.7247,27.69,73,80,4.51,PH,2025-03-24
451,novyy urgal,51.0736,132.5642,-7.64,78,89,4.49,RU,2025-03-24
452,naze,28.3667,129.4833,17.85,87,5,4.25,JP,2025-03-24
453,moundou,8.5667,16.0833,31.49,15,100,1.97,TD,2025-03-24
454,dryden,49.7833,-92.7503,-1.4,70,40,4.12,CA,2025-03-24
455,juneau,58.3019,-134.4197,6.0,95,100,3.6,US,2025-03-24
456,porto belo,-27.1578,-48.5531,29.15,71,0,4.78,BR,2025-03-24
457,kodinsk,58.6881,99.1844,-6.92,98,100,1.36,RU,2025-03-24
458,daru,-9.0763,143.2092,25.12,93,100,1.24,PG,2025-03-24
459,savonlinna,61.8699,28.88,2.18,98,100,3.6,FI,2025-03-24
460,morfou,35.1981,32.9914,15.12,74,98,1.94,CY,2025-03-24
461,nuuk,64.1835,-51.7216,2.34,87,75,4.63,GL,2025-03-24
462,oyo,7.85,3.9333,28.96,62,90,3.04,NG,2025-03-24
463,shagonar,51.5333,92.8,-6.96,94,100,1.35,RU,2025-03-24
464,carutapera,-1.195,-46.02,28.28,74,88,3.48,BR,2025-03-24
465,mhamid,29.82,-5.72,21.65,20,0,4.52,MA,2025-03-24
466,luza,60.6308,47.2512,-3.21,97,53,2.04,RU,2025-03-24
467,shihezi,44.3,86.0333,6.64,98,98,2.93,CN,2025-03-24
468,tsetserleg,47.475,101.4542,-5.78,59,100,1.86,MN,2025-03-24
469,rongelap,11.1635,166.8941,27.0,68,100,7.2,MH,2025-03-24
470,al bukayriyah,26.1442,43.6593,16.31,19,0,2.46,SA,2025-03-24
471,harstad,68.799,16.5293,2.43,84,22,4.47,NO,2025-03-24
472,muleshoe,34.2265,-102.7238,23.36,17,0,6.66,US,2025-03-24
473,guerrero negro,27.9769,-114.0611,19.27,64,75,5.07,MX,2025-03-24
474,greymouth,-42.4667,171.2,13.45,84,100,0.05,NZ,2025-03-24
475,mejit,10.2753,170.8646,26.97,80,24,7.45,MH,2025-03-24
476,lompoc,34.6391,-120.4579,22.25,53,0,4.63,US,2025-03-24
477,qujing,25.4833,103.7833,10.42,60,10,2.52,CN,2025-03-24
478,castillos,-34.1667,-53.8333,24.24,62,17,5.07,UY,2025-03-24
479,rasony,55.9089,28.8126,3.27,98,100,2.96,BY,2025-03-24
480,torghay,49.6339,63.4981,-1.3,61,2,4.8,KZ,2025-03-24
481,wewak,-3.5534,143.6268,25.47,87,51,1.16,PG,2025-03-24
482,huarmey,-10.0681,-78.1522,24.97,70,12,4.92,PE,2025-03-24
483,sovetsk,55.0839,21.8785,4.68,76,100,1.12,RU,2025-03-24
484,port washington,40.8257,-73.6982,9.57,98,100,1.54,US,2025-03-24
485,turar ryskulov,42.5333,70.3333,9.13,94,100,0.74,KZ,2025-03-24
486,koungheul,13.9833,-14.8,36.78,12,35,1.42,SN,2025-03-24
487,abepura,-2.6333,140.5833,22.24,97,20,1.03,ID,2025-03-24
488,pont rouge,48.8833,-72.0825,-2.56,69,100,5.15,CA,2025-03-24
489,yeraliyev,43.2,51.65,5.06,97,100,8.54,KZ,2025-03-24
490,rio gallegos,-51.6226,-69.2181,18.03,42,0,12.86,AR,2025-03-24
491,antsiranana,-12.2787,49.2917,25.29,93,100,3.31,MG,2025-03-24
492,mpanda,-6.3655,31.0409,19.61,95,100,0.54,TZ,2025-03-24
493,remire-montjoly,4.9167,-52.2667,26.38,81,75,8.75,GF,2025-03-24
494,jinghong,21.991,100.7341,19.49,47,5,1.63,CN,2025-03-24
495,sasovo,54.3537,41.9199,3.0,65,3,3.92,RU,2025-03-24
496,khanty-mansiysk,61.0042,69.0019,-5.94,45,0,3.0,RU,2025-03-24
497,ban karon,7.8477,98.2985,27.82,74,28,3.62,TH,2025-03-24
498,fada,7.25,4.0667,26.67,80,100,2.37,NG,2025-03-24
499,ad dabbah,18.05,30.95,23.76,10,1,5.0,SD,2025-03-24
500,mermoz boabab,14.7065,-17.4758,21.02,72,19,5.14,SN,2025-03-24
501,tromso,69.6496,18.957,2.18,79,75,7.72,NO,2025-03-24
502,akbarabad,29.2464,52.7793,8.12,46,0,1.78,IR,2025-03-24
503,guangshui,31.6199,113.9978,15.65,61,0,2.12,CN,2025-03-24
504,nema,57.5067,50.5011,-4.93,100,66,1.52,RU,2025-03-24
505,ponta delgada,37.7333,-25.6667,15.53,75,20,4.63,PT,2025-03-24
506,bahau,2.8079,102.4049,25.2,95,100,0.48,MY,2025-03-24
507,hilo,19.7297,-155.09,26.17,71,75,1.54,US,2025-03-24
508,svetlyy,54.675,20.1347,3.63,91,53,1.39,RU,2025-03-24
509,humaita,-7.5061,-63.0208,28.97,83,100,1.77,BR,2025-03-24
510,sabang,5.8933,95.3214,28.34,75,78,4.08,ID,2025-03-24
511,derinkuyu,38.3751,34.7342,6.88,74,56,2.11,TR,2025-03-24
512,al kut,32.5147,45.819,15.78,26,0,6.21,IQ,2025-03-24
513,yuzhno-kurilsk,44.0306,145.8556,2.23,99,100,5.38,RU,2025-03-24
514,bamboo flat,11.7,92.7167,25.97,77,40,1.03,IN,2025-03-24
515,chornomors'k,46.305,30.6548,7.64,90,100,8.91,UA,2025-03-24
516,west bay,19.3667,-81.4167,30.43,70,20,6.69,KY,2025-03-24
517,gilgit,35.9221,74.3087,6.01,68,100,0.54,PK,2025-03-24
518,zaozersk,69.4005,32.4476,2.75,71,65,7.68,RU,2025-03-24
519,troitsk,54.0979,61.5773,-1.0,58,5,2.12,RU,2025-03-24
520,nushki,29.5542,66.0215,25.55,14,100,3.57,PK,2025-03-24
521,dongola,19.1667,30.4833,23.5,11,0,3.98,SD,2025-03-24
522,coeur d'alene,47.6777,-116.7805,12.35,80,100,4.63,US,2025-03-24
523,santa isabel,-23.3156,-46.2214,25.67,64,5,2.65,BR,2025-03-24
524,den burg,53.0542,4.7972,7.4,87,100,3.09,NL,2025-03-24
525,phan rang-thap cham,11.5667,108.9833,21.53,85,92,1.82,VN,2025-03-24
526,sampit,-2.5333,112.95,23.96,98,96,1.09,ID,2025-03-24
527,katsuura,35.1333,140.3,14.39,77,0,5.69,JP,2025-03-24
528,kozhevnikovo,56.2589,83.9714,-9.86,91,100,4.41,RU,2025-03-24
529,puducherry,11.9333,79.8167,26.47,74,1,3.73,IN,2025-03-24
530,coyhaique,-45.5752,-72.0662,22.34,41,5,0.51,CL,2025-03-24
531,ermoupolis,37.4423,24.9425,16.12,72,100,1.03,GR,2025-03-24
532,lhasa,29.65,91.1,-0.38,19,0,1.93,CN,2025-03-24
533,barra de santo antonio,-9.4047,-35.5072,28.56,61,0,4.04,BR,2025-03-24
534,nizhnesortymskiy,62.4397,71.7603,-12.59,95,100,2.25,RU,2025-03-24
535,ryazan',55.6744,36.6697,6.07,65,82,4.77,RU,2025-03-24
536,persembe,41.0656,37.7714,9.92,74,61,2.53,TR,2025-03-24
537,el nido,11.1858,119.3956,24.29,91,19,1.87,PH,2025-03-24
538,tarfaya,27.9358,-12.9218,17.75,74,0,10.76,MA,2025-03-24
539,mchinji,-13.7984,32.8802,18.9,96,100,1.47,MW,2025-03-24
540,champerico,14.3,-91.9167,35.16,62,5,7.07,GT,2025-03-24
541,guozhen,34.3659,107.359,16.06,39,0,2.71,CN,2025-03-24
542,tungipara,22.9,89.9167,21.12,51,0,1.82,BD,2025-03-24
543,kaga bandoro,6.9896,19.1874,28.69,40,11,1.43,CF,2025-03-24
544,extrema,-22.8547,-46.3183,25.99,68,12,1.58,BR,2025-03-24
545,hovd,48.0056,91.6419,-1.16,43,3,3.44,MN,2025-03-24
546,kondopoga,62.2057,34.2614,5.37,70,100,3.65,RU,2025-03-24
547,puerto aysen,-45.4,-72.7,22.75,45,3,0.37,CL,2025-03-24
548,santa lucia,27.9117,-15.5407,11.67,73,75,9.77,ES,2025-03-24
549,puerto ayacucho,5.6639,-67.6236,37.61,30,61,2.0,VE,2025-03-24
550,santa terezinha,-29.9002,-50.0904,28.49,75,100,3.57,BR,2025-03-24
551,solwezi,-12.1688,26.3894,19.77,84,100,1.64,ZM,2025-03-24
552,coahuayana de hidalgo,18.7,-103.6583,31.95,36,100,3.51,MX,2025-03-24
553,suwayr,30.1171,40.3893,16.2,22,0,2.16,SA,2025-03-24
554,matiri,-10.75,34.9,17.5,96,100,1.51,TZ,2025-03-24
555,justo daract,-33.8594,-65.1828,13.14,93,100,3.95,AR,2025-03-24
556,salinopolis,-0.6136,-47.3561,27.56,78,88,4.19,BR,2025-03-24
557,novyy urengoy,66.0833,76.6333,-22.62,100,78,2.74,RU,2025-03-24
558,tual,-5.6667,132.75,27.73,81,7,4.95,ID,2025-03-24
559,tucuma,-0.1833,-50.05,28.02,77,77,3.97,BR,2025-03-24
560,mangrol,21.1167,70.1167,25.7,68,0,3.59,IN,2025-03-24
561,dalhart,36.0595,-102.5133,22.48,17,0,4.63,US,2025-03-24
562,calbuco,-41.768,-73.1273,19.56,70,0,4.89,CL,2025-03-24
563,khuzdar,27.7384,66.6434,22.19,14,98,2.18,PK,2025-03-24
564,pangody,65.85,74.4859,-20.58,100,83,1.45,RU,2025-03-24
565,alofi,-19.0595,-169.9187,24.94,94,40,0.51,NU,2025-03-24
566,acarau,-2.8856,-40.12,28.22,74,20,4.56,BR,2025-03-24
567,east ballina,-28.8667,153.5833,22.05,81,100,3.79,AU,2025-03-24
568,awjilah,29.1081,21.2869,21.44,13,100,4.97,LY,2025-03-24
569,bereznik,62.8551,42.7072,-4.03,97,83,1.92,RU,2025-03-24
570,eyl,7.9803,49.8164,27.17,87,21,6.68,SO,2025-03-24
571,stellenbosch,-33.9346,18.8668,18.23,77,0,2.65,ZA,2025-03-24
572,makokou,0.5738,12.8642,23.8,80,83,0.87,GA,2025-03-24
573,kapchorwa,1.3965,34.4509,16.47,72,68,1.96,UG,2025-03-24
574,leava,-14.3,-178.1667,28.21,80,93,5.33,WF,2025-03-24
575,mahibadhoo,3.7833,72.9667,28.66,75,0,3.79,MV,2025-03-24
576,bodo,67.28,14.405,1.38,91,75,8.75,NO,2025-03-24
577,rio grande,-32.035,-52.0986,25.56,64,36,5.72,BR,2025-03-24
578,beli,7.8587,10.9719,30.1,16,41,0.87,NG,2025-03-24
579,rabigh,22.7986,39.0349,30.1,32,0,3.92,SA,2025-03-24
580,murzuq,25.9155,13.9184,25.85,5,0,4.8,LY,2025-03-24
581,helena valley west central,46.6629,-112.0604,11.68,55,100,7.2,US,2025-03-24
582,melfort,52.8667,-104.6177,0.63,94,100,1.54,CA,2025-03-24
583,paita,-5.0892,-81.1144,26.95,65,12,6.51,PE,2025-03-24
584,jiagedaqi,50.4167,124.1167,-10.73,94,100,1.19,CN,2025-03-24
585,shubarshi,48.5872,57.1869,3.77,73,100,4.72,KZ,2025-03-24
586,ghormach,35.7306,63.7826,7.03,89,100,2.65,AF,2025-03-24
587,beyneu,45.3167,55.2,4.52,76,100,4.45,KZ,2025-03-24
588,kapuskasing,49.4169,-82.4331,-0.14,80,100,6.17,CA,2025-03-24
589,mar del plata,-38.0023,-57.5575,17.52,68,1,6.71,AR,2025-03-24
590,tapes,-30.6733,-51.3958,29.1,63,56,6.33,BR,2025-03-24
591,piacabucu,-10.4056,-36.4344,29.06,66,10,4.92,BR,2025-03-24
592,madaoua,14.073,5.96,28.91,10,100,3.24,NE,2025-03-24
593,beira,-19.8436,34.8389,27.05,69,0,4.12,MZ,2025-03-24
594,monster,52.0258,4.175,7.86,84,100,3.09,NL,2025-03-24
595,vilhena,-12.7406,-60.1458,27.53,89,75,2.06,BR,2025-03-24
596,sao vicente,-23.9631,-46.3919,28.92,51,17,2.34,BR,2025-03-24
597,macapa,0.0389,-51.0664,27.71,78,40,4.63,BR,2025-03-24
598,papao,-17.75,-149.55,29.82,80,65,10.26,PF,2025-03-24
599,rondonopolis,-16.4708,-54.6356,28.86,72,100,1.48,BR,2025-03-24
600,okha,53.5739,142.9478,-4.45,96,100,6.23,RU,2025-03-24
